{
  "city": [
    {
      "id": 1,
      "region_id": 1,
      "name": "Москва",
      "paraphrasing": [
        "Златоглавая",
        "Златоглавой",
        "МСК"
      ],
      "weight": 100,
      "geo_lat": 55.7540471,
      "geo_lon": 37.620405,
      "region": {
        "id": 1,
        "name": "Москва и МО"
      }
    },
    {
      "id": 2,
      "region_id": 2,
      "name": "Ростов-на-Дону",
      "weight": 80,
      "geo_lat": 47.2224566,
      "geo_lon": 39.718803,
      "region": {
        "id": 2,
        "name": "Ростовская область"
      }
    },
    {
      "id": 3,
      "region_id": 3,
      "name": "Казань",
      "weight": 80,
      "geo_lat": 55.7943584,
      "geo_lon": 49.1114975,
      "region": {
        "id": 3,
        "name": "Татарстан республика"
      }
    },
    {
      "id": 4,
      "region_id": 4,
      "name": "Уфа",
      "weight": 80,
      "geo_lat": 54.734944,
      "geo_lon": 55.9578468,
      "region": {
        "id": 4,
        "name": "Башкортостан республика"
      }
    },
    {
      "id": 5,
      "region_id": 4,
      "name": "Стерлитамак",
      "weight": 0,
      "geo_lat": 53.6300864,
      "geo_lon": 55.9317089,
      "region": {
        "id": 4,
        "name": "Башкортостан республика"
      }
    },
    {
      "id": 6,
      "region_id": 3,
      "name": "Бугульма",
      "weight": 0,
      "geo_lat": 54.5363495,
      "geo_lon": 52.7895849,
      "region": {
        "id": 3,
        "name": "Татарстан республика"
      }
    },
    {
      "id": 7,
      "region_id": 3,
      "name": "Набережные Челны",
      "paraphrasing": [
        "Набережных Челна"
      ],
      "weight": 0,
      "geo_lat": 55.7434619,
      "geo_lon": 52.3959165,
      "region": {
        "id": 3,
        "name": "Татарстан республика"
      }
    },
    {
      "id": 8,
      "region_id": 5,
      "name": "Челябинск",
      "paraphrasing": [
        "Челяба"
      ],
      "weight": 80,
      "geo_lat": 55.1602624,
      "geo_lon": 61.4008078,
      "region": {
        "id": 5,
        "name": "Челябинская область"
      }
    },
    {
      "id": 9,
      "region_id": 6,
      "name": "Пермь",
      "weight": 80,
      "geo_lat": 58.0102583,
      "geo_lon": 56.2342034,
      "region": {
        "id": 6,
        "name": "Пермский край"
      }
    },
    {
      "id": 10,
      "region_id": 7,
      "name": "Омск",
      "weight": 80,
      "geo_lat": 54.9848566,
      "geo_lon": 73.3674517,
      "region": {
        "id": 7,
        "name": "Омская область"
      }
    },
    {
      "id": 11,
      "region_id": 9,
      "name": "Краснодар",
      "weight": 0,
      "geo_lat": 45.0401604,
      "geo_lon": 38.9759647,
      "region": {
        "id": 9,
        "name": "Краснодарский край"
      }
    },
    {
      "id": 12,
      "region_id": 9,
      "name": "Сочи",
      "weight": 0,
      "geo_lat": 43.5854551,
      "geo_lon": 39.7231548,
      "region": {
        "id": 9,
        "name": "Краснодарский край"
      }
    },
    {
      "id": 13,
      "region_id": 8,
      "name": "Ставрополь",
      "weight": 0,
      "geo_lat": 45.044516,
      "geo_lon": 41.9689655,
      "region": {
        "id": 8,
        "name": "Ставропольский край"
      }
    },
    {
      "id": 14,
      "region_id": 9,
      "name": "Новороссийск",
      "paraphrasing": [
        "Новорос"
      ],
      "weight": 0,
      "geo_lat": 44.7235026,
      "geo_lon": 37.7686135,
      "region": {
        "id": 9,
        "name": "Краснодарский край"
      }
    },
    {
      "id": 15,
      "region_id": 8,
      "name": "Минеральные Воды",
      "paraphrasing": [
        "Минеральных Водах",
        "Мин Водах",
        "Мин Воды"
      ],
      "weight": 0,
      "geo_lat": 44.2087273,
      "geo_lon": 43.138408,
      "region": {
        "id": 8,
        "name": "Ставропольский край"
      }
    },
    {
      "id": 16,
      "region_id": 11,
      "name": "Тюмень",
      "weight": 0,
      "geo_lat": 57.1529744,
      "geo_lon": 65.5344099,
      "region": {
        "id": 11,
        "name": "Тюменская область"
      }
    },
    {
      "id": 17,
      "region_id": 1,
      "name": "Люберцы",
      "weight": 0,
      "geo_lat": 55.7003989,
      "geo_lon": 37.9606238,
      "region": {
        "id": 1,
        "name": "Москва и МО"
      }
    },
    {
      "id": 18,
      "region_id": 13,
      "name": "Санкт-Петербург",
      "paraphrasing": [
        "Питер",
        "Ленинград",
        "СПб",
        "SPB",
        "ЭсПэБэ"
      ],
      "weight": 99,
      "geo_lat": 59.9391313,
      "geo_lon": 30.3159004,
      "region": {
        "id": 13,
        "name": "Санкт-Петербург и ЛО"
      }
    },
    {
      "id": 19,
      "region_id": 14,
      "name": "Белгород",
      "weight": 0,
      "geo_lat": 50.5976472,
      "geo_lon": 36.5856652,
      "region": {
        "id": 14,
        "name": "Белгородская область"
      }
    },
    {
      "id": 20,
      "region_id": 15,
      "name": "Воронеж",
      "weight": 80,
      "geo_lat": 51.6593332,
      "geo_lon": 39.1969229,
      "region": {
        "id": 15,
        "name": "Воронежская область"
      }
    },
    {
      "id": 21,
      "region_id": 16,
      "name": "Новосибирск",
      "paraphrasing": [
        "Новосиб",
        "Нск",
        "Столица Сибири",
        "столице сибирь"
      ],
      "weight": 80,
      "geo_lat": 55.028191,
      "geo_lon": 82.9211489,
      "region": {
        "id": 16,
        "name": "Новосибирская область"
      }
    },
    {
      "id": 22,
      "region_id": 17,
      "name": "Екатеринбург",
      "paraphrasing": [
        "Екат",
        "ЕКБ"
      ],
      "weight": 80,
      "geo_lat": 56.8385216,
      "geo_lon": 60.6054911,
      "region": {
        "id": 17,
        "name": "Свердловская область"
      }
    },
    {
      "id": 23,
      "region_id": 19,
      "name": "Нижний Новгород",
      "paraphrasing": [
        "Нижнем Новгороде"
      ],
      "weight": 80,
      "geo_lat": 56.3240627,
      "geo_lon": 44.0053913,
      "region": {
        "id": 19,
        "name": "Нижегородская область"
      }
    },
    {
      "id": 24,
      "region_id": 20,
      "name": "Абакан",
      "weight": 0,
      "geo_lat": 53.7223325,
      "geo_lon": 91.4436721,
      "region": {
        "id": 20,
        "name": "Хакасия республика"
      }
    },
    {
      "id": 25,
      "region_id": 9,
      "name": "Абинск",
      "weight": 0,
      "geo_lat": 44.8679655,
      "geo_lon": 38.1618157,
      "region": {
        "id": 9,
        "name": "Краснодарский край"
      }
    },
    {
      "id": 26,
      "region_id": 21,
      "name": "Александров",
      "weight": 0,
      "geo_lat": 56.391819,
      "geo_lon": 38.7111123,
      "region": {
        "id": 21,
        "name": "Владимирская область"
      }
    },
    {
      "id": 27,
      "region_id": 22,
      "name": "Архангельск",
      "weight": 0,
      "geo_lat": 64.5394289,
      "geo_lon": 40.5169606,
      "region": {
        "id": 22,
        "name": "Архангельская область"
      }
    },
    {
      "id": 28,
      "region_id": 23,
      "name": "Волгоград",
      "weight": 80,
      "geo_lat": 48.7070042,
      "geo_lon": 44.5170339,
      "region": {
        "id": 23,
        "name": "Волгоградская область"
      }
    },
    {
      "id": 29,
      "region_id": 24,
      "name": "Ярославль",
      "weight": 0,
      "geo_lat": 57.6215477,
      "geo_lon": 39.8977411,
      "region": {
        "id": 24,
        "name": "Ярославская область"
      }
    },
    {
      "id": 30,
      "region_id": 25,
      "name": "Вологда",
      "weight": 0,
      "geo_lat": 59.2483905,
      "geo_lon": 39.8355662,
      "region": {
        "id": 25,
        "name": "Вологодская область"
      }
    },
    {
      "id": 31,
      "region_id": 26,
      "name": "Калуга",
      "weight": 0,
      "geo_lat": 54.5059848,
      "geo_lon": 36.2516245,
      "region": {
        "id": 26,
        "name": "Калужская область"
      }
    },
    {
      "id": 32,
      "region_id": 27,
      "name": "Оренбург",
      "weight": 0,
      "geo_lat": 51.7875092,
      "geo_lon": 55.1018828,
      "region": {
        "id": 27,
        "name": "Оренбургская область"
      }
    },
    {
      "id": 33,
      "region_id": 28,
      "name": "Пенза",
      "weight": 0,
      "geo_lat": 53.1753314,
      "geo_lon": 45.0348625,
      "region": {
        "id": 28,
        "name": "Пензенская область"
      }
    },
    {
      "id": 34,
      "region_id": 29,
      "name": "Самара",
      "weight": 80,
      "geo_lat": 53.1950306,
      "geo_lon": 50.1069518,
      "region": {
        "id": 29,
        "name": "Самарская область"
      }
    },
    {
      "id": 35,
      "region_id": 30,
      "name": "Тверь",
      "weight": 0,
      "geo_lat": 56.8586059,
      "geo_lon": 35.9116761,
      "region": {
        "id": 30,
        "name": "Тверская область"
      }
    },
    {
      "id": 36,
      "region_id": 31,
      "name": "Тула",
      "weight": 0,
      "geo_lat": 54.1920559,
      "geo_lon": 37.6153842,
      "region": {
        "id": 31,
        "name": "Тульская область"
      }
    },
    {
      "id": 37,
      "region_id": 32,
      "name": "Великий Новгород",
      "paraphrasing": [
        "Великом Новгороде"
      ],
      "weight": 0,
      "geo_lat": 58.5213846,
      "geo_lon": 31.2755394,
      "region": {
        "id": 32,
        "name": "Новгородская область"
      }
    },
    {
      "id": 38,
      "region_id": 21,
      "name": "Владимир",
      "weight": 0,
      "geo_lat": 56.1280804,
      "geo_lon": 40.4084376,
      "region": {
        "id": 21,
        "name": "Владимирская область"
      }
    },
    {
      "id": 39,
      "region_id": 33,
      "name": "Липецк",
      "weight": 0,
      "geo_lat": 52.610249,
      "geo_lon": 39.5947883,
      "region": {
        "id": 33,
        "name": "Липецкая область"
      }
    },
    {
      "id": 40,
      "region_id": 34,
      "name": "Чебоксары",
      "weight": 0,
      "geo_lat": 56.1438298,
      "geo_lon": 47.2489782,
      "region": {
        "id": 34,
        "name": "Чувашская республика Чувашия"
      }
    },
    {
      "id": 41,
      "region_id": 1,
      "name": "Дмитров",
      "weight": 0,
      "geo_lat": 56.3477457,
      "geo_lon": 37.526672,
      "region": {
        "id": 1,
        "name": "Москва и МО"
      }
    },
    {
      "id": 42,
      "region_id": 35,
      "name": "Сургут",
      "weight": 0,
      "geo_lat": 61.2541083,
      "geo_lon": 73.3961587,
      "region": {
        "id": 35,
        "name": "Ханты-Мансийский Автономный округ - Югра автономный округ"
      }
    },
    {
      "id": 43,
      "region_id": 36,
      "name": "Иваново",
      "weight": 0,
      "geo_lat": 56.9993792,
      "geo_lon": 40.9728272,
      "region": {
        "id": 36,
        "name": "Ивановская область"
      }
    },
    {
      "id": 44,
      "region_id": 37,
      "name": "Ижевск",
      "paraphrasing": [
        "Ижик",
        "Ижмуртск"
      ],
      "weight": 0,
      "geo_lat": 56.852738,
      "geo_lon": 53.2114896,
      "region": {
        "id": 37,
        "name": "Удмуртская республика"
      }
    },
    {
      "id": 45,
      "region_id": 38,
      "name": "Иркутск",
      "paraphrasing": [
        "Ирк",
        "Столица Прибайкалья"
      ],
      "weight": 0,
      "geo_lat": 52.2864036,
      "geo_lon": 104.2807466,
      "region": {
        "id": 38,
        "name": "Иркутская область"
      }
    },
    {
      "id": 46,
      "region_id": 39,
      "name": "Йошкар-Ола",
      "paraphrasing": [
        "Йошка"
      ],
      "weight": 0,
      "geo_lat": 56.6343662,
      "geo_lon": 47.8999706,
      "region": {
        "id": 39,
        "name": "Марий Эл республика"
      }
    },
    {
      "id": 47,
      "region_id": 29,
      "name": "Тольятти",
      "weight": 0,
      "geo_lat": 53.5205348,
      "geo_lon": 49.3894028,
      "region": {
        "id": 29,
        "name": "Самарская область"
      }
    },
    {
      "id": 48,
      "region_id": 40,
      "name": "Саратов",
      "weight": 0,
      "geo_lat": 51.5303047,
      "geo_lon": 45.9529348,
      "region": {
        "id": 40,
        "name": "Саратовская область"
      }
    },
    {
      "id": 49,
      "region_id": 41,
      "name": "Калининград",
      "weight": 0,
      "geo_lat": 54.7074702,
      "geo_lon": 20.5073241,
      "region": {
        "id": 41,
        "name": "Калининградская область"
      }
    },
    {
      "id": 50,
      "region_id": 30,
      "name": "Калязин",
      "weight": 0,
      "geo_lat": 57.2579478,
      "geo_lon": 37.7819693,
      "region": {
        "id": 30,
        "name": "Тверская область"
      }
    },
    {
      "id": 51,
      "region_id": 42,
      "name": "Киров",
      "paraphrasing": [
        "Вятка"
      ],
      "weight": 0,
      "geo_lat": 58.6035264,
      "geo_lon": 49.6679304,
      "region": {
        "id": 42,
        "name": "Кировская область"
      },
      "has_name_dupe": true
    },
    {
      "id": 52,
      "region_id": 1,
      "name": "Клин",
      "weight": 0,
      "geo_lat": 56.3425605,
      "geo_lon": 36.7240032,
      "region": {
        "id": 1,
        "name": "Москва и МО"
      }
    },
    {
      "id": 53,
      "region_id": 43,
      "name": "Красноярск",
      "paraphrasing": [
        "Край",
        "Краск",
        "Крск",
        "Ярск"
      ],
      "weight": 80,
      "geo_lat": 56.0093879,
      "geo_lon": 92.8524806,
      "region": {
        "id": 43,
        "name": "Красноярский край"
      }
    },
    {
      "id": 54,
      "region_id": 44,
      "name": "Курск",
      "weight": 0,
      "geo_lat": 51.7303637,
      "geo_lon": 36.1925603,
      "region": {
        "id": 44,
        "name": "Курская область"
      }
    },
    {
      "id": 55,
      "region_id": 45,
      "name": "Мурманск",
      "weight": 0,
      "geo_lat": 69.007721,
      "geo_lon": 33.0685865,
      "region": {
        "id": 45,
        "name": "Мурманская область"
      }
    },
    {
      "id": 56,
      "region_id": 46,
      "name": "Рязань",
      "weight": 0,
      "geo_lat": 54.6254445,
      "geo_lon": 39.7358609,
      "region": {
        "id": 46,
        "name": "Рязанская область"
      }
    },
    {
      "id": 57,
      "region_id": 25,
      "name": "Череповец",
      "weight": 0,
      "geo_lat": 59.1269212,
      "geo_lon": 37.9090497,
      "region": {
        "id": 25,
        "name": "Вологодская область"
      }
    },
    {
      "id": 58,
      "region_id": 5,
      "name": "Магнитогорск",
      "weight": 0,
      "geo_lat": 53.4072153,
      "geo_lon": 58.9791437,
      "region": {
        "id": 5,
        "name": "Челябинская область"
      }
    },
    {
      "id": 59,
      "region_id": 47,
      "name": "Мценск",
      "weight": 0,
      "geo_lat": 53.2788438,
      "geo_lon": 36.5749105,
      "region": {
        "id": 47,
        "name": "Орловская область"
      }
    },
    {
      "id": 60,
      "region_id": 48,
      "name": "Тамбов",
      "weight": 0,
      "geo_lat": 52.7213154,
      "geo_lon": 41.452264,
      "region": {
        "id": 48,
        "name": "Тамбовская область"
      }
    },
    {
      "id": 61,
      "region_id": 49,
      "name": "Ульяновск",
      "weight": 0,
      "geo_lat": 54.3079415,
      "geo_lon": 48.3748487,
      "region": {
        "id": 49,
        "name": "Ульяновская область"
      }
    },
    {
      "id": 62,
      "region_id": 47,
      "name": "Орёл",
      "weight": 0,
      "geo_lat": 52.9671298,
      "geo_lon": 36.0696427,
      "region": {
        "id": 47,
        "name": "Орловская область"
      }
    },
    {
      "id": 63,
      "region_id": 50,
      "name": "Петрозаводск",
      "weight": 0,
      "geo_lat": 61.7891264,
      "geo_lon": 34.3596434,
      "region": {
        "id": 50,
        "name": "Карелия республика"
      }
    },
    {
      "id": 64,
      "region_id": 51,
      "name": "Псков",
      "weight": 0,
      "geo_lat": 57.8194415,
      "geo_lon": 28.3317198,
      "region": {
        "id": 51,
        "name": "Псковская область"
      }
    },
    {
      "id": 65,
      "region_id": 52,
      "name": "Саранск",
      "weight": 0,
      "geo_lat": 54.1809332,
      "geo_lon": 45.1862632,
      "region": {
        "id": 52,
        "name": "Мордовия республика"
      }
    },
    {
      "id": 66,
      "region_id": 22,
      "name": "Северодвинск",
      "weight": 0,
      "geo_lat": 64.5625385,
      "geo_lon": 39.8180934,
      "region": {
        "id": 22,
        "name": "Архангельская область"
      }
    },
    {
      "id": 67,
      "region_id": 53,
      "name": "Смоленск",
      "weight": 0,
      "geo_lat": 54.7866913,
      "geo_lon": 31.8152477,
      "region": {
        "id": 53,
        "name": "Смоленская область"
      }
    },
    {
      "id": 68,
      "region_id": 14,
      "name": "Старый Оскол",
      "weight": 0,
      "geo_lat": 51.2967101,
      "geo_lon": 37.8350182,
      "region": {
        "id": 14,
        "name": "Белгородская область"
      }
    },
    {
      "id": 69,
      "region_id": 1,
      "name": "Московский",
      "weight": 0,
      "geo_lat": 55.602144,
      "geo_lon": 37.346551,
      "region": {
        "id": 1,
        "name": "Москва и МО"
      }
    },
    {
      "id": 70,
      "region_id": 1,
      "name": "Химки",
      "weight": 0,
      "geo_lat": 55.888657,
      "geo_lon": 37.4303702,
      "region": {
        "id": 1,
        "name": "Москва и МО"
      }
    },
    {
      "id": 71,
      "region_id": 1,
      "name": "Реутов",
      "weight": 0,
      "geo_lat": 55.7582621,
      "geo_lon": 37.8618553,
      "region": {
        "id": 1,
        "name": "Москва и МО"
      }
    },
    {
      "id": 73,
      "region_id": 54,
      "name": "Сыктывкар",
      "weight": 0,
      "geo_lat": 61.6686617,
      "geo_lon": 50.8358151,
      "region": {
        "id": 54,
        "name": "Коми республика"
      }
    },
    {
      "id": 74,
      "region_id": 55,
      "name": "Астрахань",
      "weight": 0,
      "geo_lat": 46.3655652,
      "geo_lon": 48.0559236,
      "region": {
        "id": 55,
        "name": "Астраханская область"
      }
    },
    {
      "id": 76,
      "region_id": 1,
      "name": "Балашиха",
      "weight": 0,
      "geo_lat": 55.796389,
      "geo_lon": 37.938283,
      "region": {
        "id": 1,
        "name": "Москва и МО"
      }
    },
    {
      "id": 77,
      "region_id": 1,
      "name": "Мытищи",
      "weight": 0,
      "geo_lat": 55.9105782,
      "geo_lon": 37.7363579,
      "region": {
        "id": 1,
        "name": "Москва и МО"
      }
    },
    {
      "id": 81,
      "region_id": 1,
      "name": "Одинцово",
      "weight": 0,
      "geo_lat": 55.6789455,
      "geo_lon": 37.263686,
      "region": {
        "id": 1,
        "name": "Москва и МО"
      }
    },
    {
      "id": 82,
      "region_id": 56,
      "name": "Якутск",
      "weight": 0,
      "geo_lat": 62.0281405,
      "geo_lon": 129.7325887,
      "region": {
        "id": 56,
        "name": "Саха /Якутия/ республика"
      }
    },
    {
      "id": 83,
      "region_id": 15,
      "name": "Борисоглебск",
      "weight": 0,
      "geo_lat": 51.3655754,
      "geo_lon": 42.1008334,
      "region": {
        "id": 15,
        "name": "Воронежская область"
      }
    },
    {
      "id": 84,
      "region_id": 10,
      "name": "Адыгейск",
      "weight": 0,
      "geo_lat": 44.878414,
      "geo_lon": 39.190289,
      "region": {
        "id": 10,
        "name": "Адыгея республика"
      }
    },
    {
      "id": 85,
      "region_id": 10,
      "name": "Майкоп",
      "weight": 0,
      "geo_lat": 44.6098268,
      "geo_lon": 40.1006606,
      "region": {
        "id": 10,
        "name": "Адыгея республика"
      }
    },
    {
      "id": 86,
      "region_id": 58,
      "name": "Горно-Алтайск",
      "weight": 0,
      "geo_lat": 51.9581028,
      "geo_lon": 85.9603235,
      "region": {
        "id": 58,
        "name": "Алтай республика"
      }
    },
    {
      "id": 87,
      "region_id": 67,
      "name": "Алейск",
      "weight": 0,
      "geo_lat": 52.4922513,
      "geo_lon": 82.7793606,
      "region": {
        "id": 67,
        "name": "Алтайский край"
      }
    },
    {
      "id": 88,
      "region_id": 67,
      "name": "Барнаул",
      "weight": 0,
      "geo_lat": 53.3479968,
      "geo_lon": 83.7798064,
      "region": {
        "id": 67,
        "name": "Алтайский край"
      }
    },
    {
      "id": 89,
      "region_id": 67,
      "name": "Белокуриха",
      "weight": 0,
      "geo_lat": 51.996152,
      "geo_lon": 84.9839604,
      "region": {
        "id": 67,
        "name": "Алтайский край"
      }
    },
    {
      "id": 90,
      "region_id": 67,
      "name": "Бийск",
      "weight": 0,
      "geo_lat": 52.5393864,
      "geo_lon": 85.2138453,
      "region": {
        "id": 67,
        "name": "Алтайский край"
      }
    },
    {
      "id": 91,
      "region_id": 67,
      "name": "Горняк",
      "weight": 0,
      "geo_lat": 50.9979622,
      "geo_lon": 81.4643358,
      "region": {
        "id": 67,
        "name": "Алтайский край"
      }
    },
    {
      "id": 92,
      "region_id": 67,
      "name": "Заринск",
      "weight": 0,
      "geo_lat": 53.7063476,
      "geo_lon": 84.9315081,
      "region": {
        "id": 67,
        "name": "Алтайский край"
      }
    },
    {
      "id": 93,
      "region_id": 67,
      "name": "Змеиногорск",
      "weight": 0,
      "geo_lat": 51.1581094,
      "geo_lon": 82.1872547,
      "region": {
        "id": 67,
        "name": "Алтайский край"
      }
    },
    {
      "id": 94,
      "region_id": 67,
      "name": "Камень-на-Оби",
      "weight": 0,
      "geo_lat": 53.7913974,
      "geo_lon": 81.3545053,
      "region": {
        "id": 67,
        "name": "Алтайский край"
      }
    },
    {
      "id": 95,
      "region_id": 67,
      "name": "Новоалтайск",
      "weight": 0,
      "geo_lat": 53.4119759,
      "geo_lon": 83.9311069,
      "region": {
        "id": 67,
        "name": "Алтайский край"
      }
    },
    {
      "id": 96,
      "region_id": 67,
      "name": "Рубцовск",
      "weight": 0,
      "geo_lat": 51.5012067,
      "geo_lon": 81.2078695,
      "region": {
        "id": 67,
        "name": "Алтайский край"
      }
    },
    {
      "id": 97,
      "region_id": 67,
      "name": "Славгород",
      "weight": 0,
      "geo_lat": 52.999463,
      "geo_lon": 78.6459232,
      "region": {
        "id": 67,
        "name": "Алтайский край"
      }
    },
    {
      "id": 98,
      "region_id": 67,
      "name": "Яровое",
      "weight": 0,
      "geo_lat": 52.9252146,
      "geo_lon": 78.5729775,
      "region": {
        "id": 67,
        "name": "Алтайский край"
      }
    },
    {
      "id": 99,
      "region_id": 70,
      "name": "Белогорск",
      "weight": 0,
      "geo_lat": 50.9213415,
      "geo_lon": 128.4739471,
      "region": {
        "id": 70,
        "name": "Амурская область"
      },
      "has_name_dupe": true
    },
    {
      "id": 100,
      "region_id": 70,
      "name": "Благовещенск",
      "weight": 0,
      "geo_lat": 50.290659,
      "geo_lon": 127.527198,
      "region": {
        "id": 70,
        "name": "Амурская область"
      },
      "has_name_dupe": true
    },
    {
      "id": 101,
      "region_id": 70,
      "name": "Завитинск",
      "weight": 0,
      "geo_lat": 50.1064111,
      "geo_lon": 129.4391813,
      "region": {
        "id": 70,
        "name": "Амурская область"
      }
    },
    {
      "id": 102,
      "region_id": 70,
      "name": "Зея",
      "weight": 0,
      "geo_lat": 53.7340088,
      "geo_lon": 127.265787,
      "region": {
        "id": 70,
        "name": "Амурская область"
      }
    },
    {
      "id": 103,
      "region_id": 70,
      "name": "Райчихинск",
      "weight": 0,
      "geo_lat": 49.7941615,
      "geo_lon": 129.4112492,
      "region": {
        "id": 70,
        "name": "Амурская область"
      }
    },
    {
      "id": 104,
      "region_id": 70,
      "name": "Свободный",
      "weight": 0,
      "geo_lat": 51.3614103,
      "geo_lon": 128.1219729,
      "region": {
        "id": 70,
        "name": "Амурская область"
      }
    },
    {
      "id": 105,
      "region_id": 70,
      "name": "Сковородино",
      "weight": 0,
      "geo_lat": 53.9871095,
      "geo_lon": 123.9437205,
      "region": {
        "id": 70,
        "name": "Амурская область"
      }
    },
    {
      "id": 106,
      "region_id": 70,
      "name": "Тында",
      "weight": 0,
      "geo_lat": 55.1546441,
      "geo_lon": 124.7468904,
      "region": {
        "id": 70,
        "name": "Амурская область"
      }
    },
    {
      "id": 107,
      "region_id": 70,
      "name": "Циолковский",
      "weight": 0,
      "geo_lat": 51.762481,
      "geo_lon": 128.1219846,
      "region": {
        "id": 70,
        "name": "Амурская область"
      }
    },
    {
      "id": 108,
      "region_id": 70,
      "name": "Шимановск",
      "weight": 0,
      "geo_lat": 52.0051886,
      "geo_lon": 127.7005458,
      "region": {
        "id": 70,
        "name": "Амурская область"
      }
    },
    {
      "id": 109,
      "region_id": 22,
      "name": "Вельск",
      "weight": 0,
      "geo_lat": 61.066,
      "geo_lon": 42.1032789,
      "region": {
        "id": 22,
        "name": "Архангельская область"
      }
    },
    {
      "id": 110,
      "region_id": 22,
      "name": "Каргополь",
      "weight": 0,
      "geo_lat": 61.5009724,
      "geo_lon": 38.9636966,
      "region": {
        "id": 22,
        "name": "Архангельская область"
      }
    },
    {
      "id": 111,
      "region_id": 22,
      "name": "Коряжма",
      "weight": 0,
      "geo_lat": 61.2885948,
      "geo_lon": 47.1003015,
      "region": {
        "id": 22,
        "name": "Архангельская область"
      }
    },
    {
      "id": 112,
      "region_id": 22,
      "name": "Котлас",
      "weight": 0,
      "geo_lat": 61.2528972,
      "geo_lon": 46.633242,
      "region": {
        "id": 22,
        "name": "Архангельская область"
      }
    },
    {
      "id": 113,
      "region_id": 22,
      "name": "Мезень",
      "weight": 0,
      "geo_lat": 65.8398078,
      "geo_lon": 44.2532273,
      "region": {
        "id": 22,
        "name": "Архангельская область"
      }
    },
    {
      "id": 114,
      "region_id": 22,
      "name": "Мирный",
      "weight": 0,
      "geo_lat": 62.7645265,
      "geo_lon": 40.3360076,
      "region": {
        "id": 22,
        "name": "Архангельская область"
      },
      "has_name_dupe": true
    },
    {
      "id": 115,
      "region_id": 22,
      "name": "Новодвинск",
      "weight": 0,
      "geo_lat": 64.4136851,
      "geo_lon": 40.8208143,
      "region": {
        "id": 22,
        "name": "Архангельская область"
      }
    },
    {
      "id": 116,
      "region_id": 22,
      "name": "Няндома",
      "weight": 0,
      "geo_lat": 61.6654674,
      "geo_lon": 40.2062947,
      "region": {
        "id": 22,
        "name": "Архангельская область"
      }
    },
    {
      "id": 117,
      "region_id": 22,
      "name": "Онега",
      "weight": 0,
      "geo_lat": 63.9162928,
      "geo_lon": 38.0805031,
      "region": {
        "id": 22,
        "name": "Архангельская область"
      }
    },
    {
      "id": 118,
      "region_id": 22,
      "name": "Сольвычегодск",
      "weight": 0,
      "geo_lat": 61.3319616,
      "geo_lon": 46.920441,
      "region": {
        "id": 22,
        "name": "Архангельская область"
      }
    },
    {
      "id": 119,
      "region_id": 22,
      "name": "Шенкурск",
      "weight": 0,
      "geo_lat": 62.1057272,
      "geo_lon": 42.8996973,
      "region": {
        "id": 22,
        "name": "Архангельская область"
      }
    },
    {
      "id": 120,
      "region_id": 55,
      "name": "Ахтубинск",
      "weight": 0,
      "geo_lat": 48.2752034,
      "geo_lon": 46.1906462,
      "region": {
        "id": 55,
        "name": "Астраханская область"
      }
    },
    {
      "id": 121,
      "region_id": 55,
      "name": "Знаменск",
      "weight": 0,
      "geo_lat": 48.5866291,
      "geo_lon": 45.7368019,
      "region": {
        "id": 55,
        "name": "Астраханская область"
      }
    },
    {
      "id": 122,
      "region_id": 55,
      "name": "Камызяк",
      "weight": 0,
      "geo_lat": 46.110579,
      "geo_lon": 48.07333,
      "region": {
        "id": 55,
        "name": "Астраханская область"
      }
    },
    {
      "id": 123,
      "region_id": 55,
      "name": "Нариманов",
      "weight": 0,
      "geo_lat": 46.6916565,
      "geo_lon": 47.8502476,
      "region": {
        "id": 55,
        "name": "Астраханская область"
      }
    },
    {
      "id": 124,
      "region_id": 55,
      "name": "Харабали",
      "weight": 0,
      "geo_lat": 47.408999,
      "geo_lon": 47.2525345,
      "region": {
        "id": 55,
        "name": "Астраханская область"
      }
    },
    {
      "id": 125,
      "region_id": 4,
      "name": "Агидель",
      "weight": 0,
      "geo_lat": 55.8999056,
      "geo_lon": 53.9220144,
      "region": {
        "id": 4,
        "name": "Башкортостан республика"
      }
    },
    {
      "id": 126,
      "region_id": 4,
      "name": "Баймак",
      "weight": 0,
      "geo_lat": 52.5912896,
      "geo_lon": 58.3110998,
      "region": {
        "id": 4,
        "name": "Башкортостан республика"
      }
    },
    {
      "id": 127,
      "region_id": 4,
      "name": "Белебей",
      "weight": 0,
      "geo_lat": 54.1034582,
      "geo_lon": 54.1113129,
      "region": {
        "id": 4,
        "name": "Башкортостан республика"
      }
    },
    {
      "id": 128,
      "region_id": 4,
      "name": "Белорецк",
      "weight": 0,
      "geo_lat": 53.9676488,
      "geo_lon": 58.4100419,
      "region": {
        "id": 4,
        "name": "Башкортостан республика"
      }
    },
    {
      "id": 129,
      "region_id": 4,
      "name": "Бирск",
      "weight": 0,
      "geo_lat": 55.4155753,
      "geo_lon": 55.5582214,
      "region": {
        "id": 4,
        "name": "Башкортостан республика"
      }
    },
    {
      "id": 130,
      "region_id": 4,
      "name": "Благовещенск",
      "weight": 0,
      "geo_lat": 55.0499867,
      "geo_lon": 55.9553186,
      "region": {
        "id": 4,
        "name": "Башкортостан республика"
      },
      "has_name_dupe": true
    },
    {
      "id": 131,
      "region_id": 4,
      "name": "Давлеканово",
      "weight": 0,
      "geo_lat": 54.2226707,
      "geo_lon": 55.0312373,
      "region": {
        "id": 4,
        "name": "Башкортостан республика"
      }
    },
    {
      "id": 132,
      "region_id": 4,
      "name": "Дюртюли",
      "weight": 0,
      "geo_lat": 55.4848318,
      "geo_lon": 54.8524765,
      "region": {
        "id": 4,
        "name": "Башкортостан республика"
      }
    },
    {
      "id": 133,
      "region_id": 4,
      "name": "Ишимбай",
      "weight": 0,
      "geo_lat": 53.4545764,
      "geo_lon": 56.0438751,
      "region": {
        "id": 4,
        "name": "Башкортостан республика"
      }
    },
    {
      "id": 134,
      "region_id": 4,
      "name": "Кумертау",
      "weight": 0,
      "geo_lat": 52.7564939,
      "geo_lon": 55.7970197,
      "region": {
        "id": 4,
        "name": "Башкортостан республика"
      }
    },
    {
      "id": 135,
      "region_id": 4,
      "name": "Межгорье",
      "weight": 0,
      "geo_lat": 54.2397689,
      "geo_lon": 57.9614547,
      "region": {
        "id": 4,
        "name": "Башкортостан республика"
      }
    },
    {
      "id": 136,
      "region_id": 4,
      "name": "Мелеуз",
      "weight": 0,
      "geo_lat": 52.9589532,
      "geo_lon": 55.9282838,
      "region": {
        "id": 4,
        "name": "Башкортостан республика"
      }
    },
    {
      "id": 137,
      "region_id": 4,
      "name": "Нефтекамск",
      "weight": 0,
      "geo_lat": 56.088377,
      "geo_lon": 54.2483061,
      "region": {
        "id": 4,
        "name": "Башкортостан республика"
      }
    },
    {
      "id": 138,
      "region_id": 4,
      "name": "Октябрьский",
      "weight": 0,
      "geo_lat": 54.4815311,
      "geo_lon": 53.4655972,
      "region": {
        "id": 4,
        "name": "Башкортостан республика"
      }
    },
    {
      "id": 139,
      "region_id": 4,
      "name": "Салават",
      "weight": 0,
      "geo_lat": 53.3616974,
      "geo_lon": 55.9245224,
      "region": {
        "id": 4,
        "name": "Башкортостан республика"
      }
    },
    {
      "id": 140,
      "region_id": 4,
      "name": "Сибай",
      "weight": 0,
      "geo_lat": 52.7204651,
      "geo_lon": 58.6663783,
      "region": {
        "id": 4,
        "name": "Башкортостан республика"
      }
    },
    {
      "id": 141,
      "region_id": 4,
      "name": "Туймазы",
      "weight": 0,
      "geo_lat": 54.5999224,
      "geo_lon": 53.6950623,
      "region": {
        "id": 4,
        "name": "Башкортостан республика"
      }
    },
    {
      "id": 142,
      "region_id": 4,
      "name": "Учалы",
      "weight": 0,
      "geo_lat": 54.3067375,
      "geo_lon": 59.4125461,
      "region": {
        "id": 4,
        "name": "Башкортостан республика"
      }
    },
    {
      "id": 143,
      "region_id": 4,
      "name": "Янаул",
      "weight": 0,
      "geo_lat": 56.2650146,
      "geo_lon": 54.929907,
      "region": {
        "id": 4,
        "name": "Башкортостан республика"
      }
    },
    {
      "id": 144,
      "region_id": 14,
      "name": "Алексеевка",
      "weight": 0,
      "geo_lat": 50.6299647,
      "geo_lon": 38.6880342,
      "region": {
        "id": 14,
        "name": "Белгородская область"
      }
    },
    {
      "id": 145,
      "region_id": 14,
      "name": "Бирюч",
      "weight": 0,
      "geo_lat": 50.6484585,
      "geo_lon": 38.4005083,
      "region": {
        "id": 14,
        "name": "Белгородская область"
      }
    },
    {
      "id": 146,
      "region_id": 14,
      "name": "Валуйки",
      "weight": 0,
      "geo_lat": 50.2111207,
      "geo_lon": 38.0998772,
      "region": {
        "id": 14,
        "name": "Белгородская область"
      }
    },
    {
      "id": 147,
      "region_id": 14,
      "name": "Грайворон",
      "weight": 0,
      "geo_lat": 50.4862958,
      "geo_lon": 35.6663877,
      "region": {
        "id": 14,
        "name": "Белгородская область"
      }
    },
    {
      "id": 148,
      "region_id": 14,
      "name": "Губкин",
      "weight": 0,
      "geo_lat": 51.2837123,
      "geo_lon": 37.5347759,
      "region": {
        "id": 14,
        "name": "Белгородская область"
      }
    },
    {
      "id": 149,
      "region_id": 14,
      "name": "Короча",
      "weight": 0,
      "geo_lat": 50.8129041,
      "geo_lon": 37.1896436,
      "region": {
        "id": 14,
        "name": "Белгородская область"
      }
    },
    {
      "id": 150,
      "region_id": 14,
      "name": "Новый Оскол",
      "weight": 0,
      "geo_lat": 50.7633747,
      "geo_lon": 37.8775484,
      "region": {
        "id": 14,
        "name": "Белгородская область"
      }
    },
    {
      "id": 151,
      "region_id": 14,
      "name": "Строитель",
      "weight": 0,
      "geo_lat": 50.7845099,
      "geo_lon": 36.4887648,
      "region": {
        "id": 14,
        "name": "Белгородская область"
      }
    },
    {
      "id": 152,
      "region_id": 14,
      "name": "Шебекино",
      "weight": 0,
      "geo_lat": 50.4004883,
      "geo_lon": 36.8877889,
      "region": {
        "id": 14,
        "name": "Белгородская область"
      }
    },
    {
      "id": 153,
      "region_id": 71,
      "name": "Брянск",
      "weight": 0,
      "geo_lat": 53.2419535,
      "geo_lon": 34.3652146,
      "region": {
        "id": 71,
        "name": "Брянская область"
      }
    },
    {
      "id": 154,
      "region_id": 71,
      "name": "Дятьково",
      "weight": 0,
      "geo_lat": 53.5958178,
      "geo_lon": 34.3551812,
      "region": {
        "id": 71,
        "name": "Брянская область"
      }
    },
    {
      "id": 155,
      "region_id": 71,
      "name": "Жуковка",
      "weight": 0,
      "geo_lat": 53.5340397,
      "geo_lon": 33.7302579,
      "region": {
        "id": 71,
        "name": "Брянская область"
      }
    },
    {
      "id": 156,
      "region_id": 71,
      "name": "Злынка",
      "weight": 0,
      "geo_lat": 52.4267015,
      "geo_lon": 31.7360399,
      "region": {
        "id": 71,
        "name": "Брянская область"
      }
    },
    {
      "id": 157,
      "region_id": 71,
      "name": "Карачев",
      "weight": 0,
      "geo_lat": 53.1296524,
      "geo_lon": 34.9888727,
      "region": {
        "id": 71,
        "name": "Брянская область"
      }
    },
    {
      "id": 158,
      "region_id": 71,
      "name": "Клинцы",
      "weight": 0,
      "geo_lat": 52.7529119,
      "geo_lon": 32.233911,
      "region": {
        "id": 71,
        "name": "Брянская область"
      }
    },
    {
      "id": 159,
      "region_id": 71,
      "name": "Мглин",
      "weight": 0,
      "geo_lat": 53.0599771,
      "geo_lon": 32.8468129,
      "region": {
        "id": 71,
        "name": "Брянская область"
      }
    },
    {
      "id": 160,
      "region_id": 71,
      "name": "Новозыбков",
      "weight": 0,
      "geo_lat": 52.537173,
      "geo_lon": 31.9357991,
      "region": {
        "id": 71,
        "name": "Брянская область"
      }
    },
    {
      "id": 161,
      "region_id": 71,
      "name": "Почеп",
      "weight": 0,
      "geo_lat": 52.9154851,
      "geo_lon": 33.4744058,
      "region": {
        "id": 71,
        "name": "Брянская область"
      }
    },
    {
      "id": 162,
      "region_id": 71,
      "name": "Севск",
      "weight": 0,
      "geo_lat": 52.1483358,
      "geo_lon": 34.4918415,
      "region": {
        "id": 71,
        "name": "Брянская область"
      }
    },
    {
      "id": 163,
      "region_id": 71,
      "name": "Сельцо",
      "weight": 0,
      "geo_lat": 53.3739884,
      "geo_lon": 34.1059172,
      "region": {
        "id": 71,
        "name": "Брянская область"
      }
    },
    {
      "id": 164,
      "region_id": 71,
      "name": "Стародуб",
      "weight": 0,
      "geo_lat": 52.5852257,
      "geo_lon": 32.760403,
      "region": {
        "id": 71,
        "name": "Брянская область"
      }
    },
    {
      "id": 165,
      "region_id": 71,
      "name": "Сураж",
      "weight": 0,
      "geo_lat": 53.0170888,
      "geo_lon": 32.3938878,
      "region": {
        "id": 71,
        "name": "Брянская область"
      }
    },
    {
      "id": 166,
      "region_id": 71,
      "name": "Трубчевск",
      "weight": 0,
      "geo_lat": 52.5791734,
      "geo_lon": 33.7660547,
      "region": {
        "id": 71,
        "name": "Брянская область"
      }
    },
    {
      "id": 167,
      "region_id": 71,
      "name": "Унеча",
      "weight": 0,
      "geo_lat": 52.8461199,
      "geo_lon": 32.6757629,
      "region": {
        "id": 71,
        "name": "Брянская область"
      }
    },
    {
      "id": 168,
      "region_id": 71,
      "name": "Фокино",
      "weight": 0,
      "geo_lat": 53.4554145,
      "geo_lon": 34.4159238,
      "region": {
        "id": 71,
        "name": "Брянская область"
      },
      "has_name_dupe": true
    },
    {
      "id": 169,
      "region_id": 57,
      "name": "Бабушкин",
      "weight": 0,
      "geo_lat": 51.7112755,
      "geo_lon": 105.8673219,
      "region": {
        "id": 57,
        "name": "Бурятия республика"
      }
    },
    {
      "id": 170,
      "region_id": 57,
      "name": "Гусиноозерск",
      "weight": 0,
      "geo_lat": 51.2865048,
      "geo_lon": 106.5230319,
      "region": {
        "id": 57,
        "name": "Бурятия республика"
      }
    },
    {
      "id": 171,
      "region_id": 57,
      "name": "Закаменск",
      "weight": 0,
      "geo_lat": 50.372713,
      "geo_lon": 103.286699,
      "region": {
        "id": 57,
        "name": "Бурятия республика"
      }
    },
    {
      "id": 172,
      "region_id": 57,
      "name": "Кяхта",
      "weight": 0,
      "geo_lat": 50.346543,
      "geo_lon": 106.4533516,
      "region": {
        "id": 57,
        "name": "Бурятия республика"
      }
    },
    {
      "id": 173,
      "region_id": 57,
      "name": "Северобайкальск",
      "weight": 0,
      "geo_lat": 55.635614,
      "geo_lon": 109.3361505,
      "region": {
        "id": 57,
        "name": "Бурятия республика"
      }
    },
    {
      "id": 174,
      "region_id": 57,
      "name": "Улан-Удэ",
      "weight": 0,
      "geo_lat": 51.8335853,
      "geo_lon": 107.5842223,
      "region": {
        "id": 57,
        "name": "Бурятия республика"
      }
    },
    {
      "id": 175,
      "region_id": 21,
      "name": "Вязники",
      "weight": 0,
      "geo_lat": 56.29773,
      "geo_lon": 42.2687398,
      "region": {
        "id": 21,
        "name": "Владимирская область"
      }
    },
    {
      "id": 176,
      "region_id": 21,
      "name": "Гороховец",
      "weight": 0,
      "geo_lat": 56.2021036,
      "geo_lon": 42.6926111,
      "region": {
        "id": 21,
        "name": "Владимирская область"
      }
    },
    {
      "id": 177,
      "region_id": 21,
      "name": "Гусь-Хрустальный",
      "weight": 0,
      "geo_lat": 55.6198751,
      "geo_lon": 40.6579929,
      "region": {
        "id": 21,
        "name": "Владимирская область"
      }
    },
    {
      "id": 178,
      "region_id": 21,
      "name": "Камешково",
      "weight": 0,
      "geo_lat": 56.3490152,
      "geo_lon": 40.9955183,
      "region": {
        "id": 21,
        "name": "Владимирская область"
      }
    },
    {
      "id": 179,
      "region_id": 21,
      "name": "Карабаново",
      "weight": 0,
      "geo_lat": 56.3131822,
      "geo_lon": 38.7034257,
      "region": {
        "id": 21,
        "name": "Владимирская область"
      }
    },
    {
      "id": 180,
      "region_id": 21,
      "name": "Киржач",
      "weight": 0,
      "geo_lat": 56.1486863,
      "geo_lon": 38.8635701,
      "region": {
        "id": 21,
        "name": "Владимирская область"
      }
    },
    {
      "id": 181,
      "region_id": 21,
      "name": "Ковров",
      "weight": 0,
      "geo_lat": 56.3554349,
      "geo_lon": 41.3170576,
      "region": {
        "id": 21,
        "name": "Владимирская область"
      }
    },
    {
      "id": 182,
      "region_id": 21,
      "name": "Кольчугино",
      "weight": 0,
      "geo_lat": 56.3327254,
      "geo_lon": 39.391336,
      "region": {
        "id": 21,
        "name": "Владимирская область"
      }
    },
    {
      "id": 183,
      "region_id": 21,
      "name": "Костерево",
      "weight": 0,
      "geo_lat": 55.9337222,
      "geo_lon": 39.6247398,
      "region": {
        "id": 21,
        "name": "Владимирская область"
      }
    },
    {
      "id": 184,
      "region_id": 21,
      "name": "Курлово",
      "weight": 0,
      "geo_lat": 55.452698,
      "geo_lon": 40.6124108,
      "region": {
        "id": 21,
        "name": "Владимирская область"
      }
    },
    {
      "id": 185,
      "region_id": 21,
      "name": "Лакинск",
      "weight": 0,
      "geo_lat": 56.0180587,
      "geo_lon": 39.956551,
      "region": {
        "id": 21,
        "name": "Владимирская область"
      }
    },
    {
      "id": 186,
      "region_id": 21,
      "name": "Меленки",
      "weight": 0,
      "geo_lat": 55.3387515,
      "geo_lon": 41.6340046,
      "region": {
        "id": 21,
        "name": "Владимирская область"
      }
    },
    {
      "id": 187,
      "region_id": 21,
      "name": "Муром",
      "weight": 0,
      "geo_lat": 55.5630311,
      "geo_lon": 42.0231362,
      "region": {
        "id": 21,
        "name": "Владимирская область"
      }
    },
    {
      "id": 188,
      "region_id": 21,
      "name": "Петушки",
      "weight": 0,
      "geo_lat": 55.9298134,
      "geo_lon": 39.4508075,
      "region": {
        "id": 21,
        "name": "Владимирская область"
      }
    },
    {
      "id": 189,
      "region_id": 21,
      "name": "Покров",
      "weight": 0,
      "geo_lat": 55.9166398,
      "geo_lon": 39.1734526,
      "region": {
        "id": 21,
        "name": "Владимирская область"
      }
    },
    {
      "id": 190,
      "region_id": 21,
      "name": "Радужный",
      "weight": 0,
      "geo_lat": 55.9960277,
      "geo_lon": 40.3321855,
      "region": {
        "id": 21,
        "name": "Владимирская область"
      },
      "has_name_dupe": true
    },
    {
      "id": 191,
      "region_id": 21,
      "name": "Собинка",
      "weight": 0,
      "geo_lat": 55.9939169,
      "geo_lon": 40.0179653,
      "region": {
        "id": 21,
        "name": "Владимирская область"
      }
    },
    {
      "id": 192,
      "region_id": 21,
      "name": "Струнино",
      "weight": 0,
      "geo_lat": 56.3749967,
      "geo_lon": 38.5839667,
      "region": {
        "id": 21,
        "name": "Владимирская область"
      }
    },
    {
      "id": 193,
      "region_id": 21,
      "name": "Судогда",
      "weight": 0,
      "geo_lat": 55.9498056,
      "geo_lon": 40.8562939,
      "region": {
        "id": 21,
        "name": "Владимирская область"
      }
    },
    {
      "id": 194,
      "region_id": 21,
      "name": "Суздаль",
      "weight": 0,
      "geo_lat": 56.4274441,
      "geo_lon": 40.4525692,
      "region": {
        "id": 21,
        "name": "Владимирская область"
      }
    },
    {
      "id": 195,
      "region_id": 21,
      "name": "Юрьев-Польский",
      "weight": 0,
      "geo_lat": 56.4937757,
      "geo_lon": 39.6680539,
      "region": {
        "id": 21,
        "name": "Владимирская область"
      }
    },
    {
      "id": 196,
      "region_id": 23,
      "name": "Волжский",
      "weight": 0,
      "geo_lat": 48.7978209,
      "geo_lon": 44.7462538,
      "region": {
        "id": 23,
        "name": "Волгоградская область"
      }
    },
    {
      "id": 197,
      "region_id": 23,
      "name": "Дубовка",
      "weight": 0,
      "geo_lat": 49.0554742,
      "geo_lon": 44.8270085,
      "region": {
        "id": 23,
        "name": "Волгоградская область"
      }
    },
    {
      "id": 198,
      "region_id": 23,
      "name": "Жирновск",
      "weight": 0,
      "geo_lat": 50.9768814,
      "geo_lon": 44.7858202,
      "region": {
        "id": 23,
        "name": "Волгоградская область"
      }
    },
    {
      "id": 199,
      "region_id": 23,
      "name": "Калач-на-Дону",
      "weight": 0,
      "geo_lat": 48.6889024,
      "geo_lon": 43.5306303,
      "region": {
        "id": 23,
        "name": "Волгоградская область"
      }
    },
    {
      "id": 200,
      "region_id": 23,
      "name": "Камышин",
      "weight": 0,
      "geo_lat": 50.0651529,
      "geo_lon": 45.3844202,
      "region": {
        "id": 23,
        "name": "Волгоградская область"
      }
    },
    {
      "id": 201,
      "region_id": 23,
      "name": "Котельниково",
      "weight": 0,
      "geo_lat": 47.6310259,
      "geo_lon": 43.1330872,
      "region": {
        "id": 23,
        "name": "Волгоградская область"
      }
    },
    {
      "id": 202,
      "region_id": 23,
      "name": "Котово",
      "weight": 0,
      "geo_lat": 50.3205766,
      "geo_lon": 44.8030699,
      "region": {
        "id": 23,
        "name": "Волгоградская область"
      }
    },
    {
      "id": 203,
      "region_id": 23,
      "name": "Краснослободск",
      "weight": 0,
      "geo_lat": 48.7068721,
      "geo_lon": 44.5630857,
      "region": {
        "id": 23,
        "name": "Волгоградская область"
      },
      "has_name_dupe": true
    },
    {
      "id": 204,
      "region_id": 23,
      "name": "Ленинск",
      "weight": 0,
      "geo_lat": 48.6936061,
      "geo_lon": 45.1992692,
      "region": {
        "id": 23,
        "name": "Волгоградская область"
      }
    },
    {
      "id": 205,
      "region_id": 23,
      "name": "Михайловка",
      "weight": 0,
      "geo_lat": 50.0708719,
      "geo_lon": 43.2401512,
      "region": {
        "id": 23,
        "name": "Волгоградская область"
      }
    },
    {
      "id": 206,
      "region_id": 23,
      "name": "Николаевск",
      "weight": 0,
      "geo_lat": 50.0165306,
      "geo_lon": 45.4731658,
      "region": {
        "id": 23,
        "name": "Волгоградская область"
      }
    },
    {
      "id": 207,
      "region_id": 23,
      "name": "Новоаннинский",
      "weight": 0,
      "geo_lat": 50.5296067,
      "geo_lon": 42.6666439,
      "region": {
        "id": 23,
        "name": "Волгоградская область"
      }
    },
    {
      "id": 208,
      "region_id": 23,
      "name": "Палласовка",
      "weight": 0,
      "geo_lat": 50.0500944,
      "geo_lon": 46.8804277,
      "region": {
        "id": 23,
        "name": "Волгоградская область"
      }
    },
    {
      "id": 209,
      "region_id": 23,
      "name": "Петров Вал",
      "weight": 0,
      "geo_lat": 50.1380557,
      "geo_lon": 45.20914,
      "region": {
        "id": 23,
        "name": "Волгоградская область"
      }
    },
    {
      "id": 210,
      "region_id": 23,
      "name": "Серафимович",
      "weight": 0,
      "geo_lat": 49.5663183,
      "geo_lon": 42.7360402,
      "region": {
        "id": 23,
        "name": "Волгоградская область"
      }
    },
    {
      "id": 211,
      "region_id": 23,
      "name": "Суровикино",
      "weight": 0,
      "geo_lat": 48.618917,
      "geo_lon": 42.8541163,
      "region": {
        "id": 23,
        "name": "Волгоградская область"
      }
    },
    {
      "id": 212,
      "region_id": 23,
      "name": "Урюпинск",
      "weight": 0,
      "geo_lat": 50.7903789,
      "geo_lon": 42.0288513,
      "region": {
        "id": 23,
        "name": "Волгоградская область"
      }
    },
    {
      "id": 213,
      "region_id": 23,
      "name": "Фролово",
      "weight": 0,
      "geo_lat": 49.7649148,
      "geo_lon": 43.6648641,
      "region": {
        "id": 23,
        "name": "Волгоградская область"
      }
    },
    {
      "id": 214,
      "region_id": 25,
      "name": "Бабаево",
      "weight": 0,
      "geo_lat": 59.3892583,
      "geo_lon": 35.9377058,
      "region": {
        "id": 25,
        "name": "Вологодская область"
      }
    },
    {
      "id": 215,
      "region_id": 25,
      "name": "Белозерск",
      "weight": 0,
      "geo_lat": 60.0308381,
      "geo_lon": 37.7890586,
      "region": {
        "id": 25,
        "name": "Вологодская область"
      }
    },
    {
      "id": 216,
      "region_id": 25,
      "name": "Великий Устюг",
      "weight": 0,
      "geo_lat": 60.7603913,
      "geo_lon": 46.3054414,
      "region": {
        "id": 25,
        "name": "Вологодская область"
      }
    },
    {
      "id": 217,
      "region_id": 25,
      "name": "Вытегра",
      "weight": 0,
      "geo_lat": 61.0063465,
      "geo_lon": 36.4495137,
      "region": {
        "id": 25,
        "name": "Вологодская область"
      }
    },
    {
      "id": 218,
      "region_id": 25,
      "name": "Грязовец",
      "weight": 0,
      "geo_lat": 58.8757553,
      "geo_lon": 40.2485362,
      "region": {
        "id": 25,
        "name": "Вологодская область"
      }
    },
    {
      "id": 219,
      "region_id": 25,
      "name": "Кадников",
      "weight": 0,
      "geo_lat": 59.5037764,
      "geo_lon": 40.3441148,
      "region": {
        "id": 25,
        "name": "Вологодская область"
      }
    },
    {
      "id": 220,
      "region_id": 25,
      "name": "Кириллов",
      "weight": 0,
      "geo_lat": 59.8591523,
      "geo_lon": 38.3748782,
      "region": {
        "id": 25,
        "name": "Вологодская область"
      }
    },
    {
      "id": 221,
      "region_id": 25,
      "name": "Красавино",
      "weight": 0,
      "geo_lat": 60.9612823,
      "geo_lon": 46.4814116,
      "region": {
        "id": 25,
        "name": "Вологодская область"
      }
    },
    {
      "id": 222,
      "region_id": 25,
      "name": "Никольск",
      "weight": 0,
      "geo_lat": 59.5351837,
      "geo_lon": 45.4576137,
      "region": {
        "id": 25,
        "name": "Вологодская область"
      },
      "has_name_dupe": true
    },
    {
      "id": 223,
      "region_id": 25,
      "name": "Сокол",
      "weight": 0,
      "geo_lat": 59.4758605,
      "geo_lon": 40.1114187,
      "region": {
        "id": 25,
        "name": "Вологодская область"
      }
    },
    {
      "id": 224,
      "region_id": 25,
      "name": "Тотьма",
      "weight": 0,
      "geo_lat": 59.9734998,
      "geo_lon": 42.7589506,
      "region": {
        "id": 25,
        "name": "Вологодская область"
      }
    },
    {
      "id": 225,
      "region_id": 25,
      "name": "Устюжна",
      "weight": 0,
      "geo_lat": 58.8383117,
      "geo_lon": 36.4425478,
      "region": {
        "id": 25,
        "name": "Вологодская область"
      }
    },
    {
      "id": 226,
      "region_id": 25,
      "name": "Харовск",
      "weight": 0,
      "geo_lat": 59.9479423,
      "geo_lon": 40.2000298,
      "region": {
        "id": 25,
        "name": "Вологодская область"
      }
    },
    {
      "id": 227,
      "region_id": 15,
      "name": "Бобров",
      "weight": 0,
      "geo_lat": 51.0901649,
      "geo_lon": 40.0318256,
      "region": {
        "id": 15,
        "name": "Воронежская область"
      }
    },
    {
      "id": 228,
      "region_id": 15,
      "name": "Богучар",
      "weight": 0,
      "geo_lat": 49.9352454,
      "geo_lon": 40.5590801,
      "region": {
        "id": 15,
        "name": "Воронежская область"
      }
    },
    {
      "id": 229,
      "region_id": 15,
      "name": "Бутурлиновка",
      "weight": 0,
      "geo_lat": 50.8311818,
      "geo_lon": 40.5976923,
      "region": {
        "id": 15,
        "name": "Воронежская область"
      }
    },
    {
      "id": 230,
      "region_id": 15,
      "name": "Калач",
      "weight": 0,
      "geo_lat": 50.4242134,
      "geo_lon": 41.0162014,
      "region": {
        "id": 15,
        "name": "Воронежская область"
      }
    },
    {
      "id": 231,
      "region_id": 15,
      "name": "Лиски",
      "weight": 0,
      "geo_lat": 50.9945626,
      "geo_lon": 39.5184909,
      "region": {
        "id": 15,
        "name": "Воронежская область"
      }
    },
    {
      "id": 232,
      "region_id": 15,
      "name": "Нововоронеж",
      "weight": 0,
      "geo_lat": 51.3091524,
      "geo_lon": 39.2162843,
      "region": {
        "id": 15,
        "name": "Воронежская область"
      }
    },
    {
      "id": 233,
      "region_id": 15,
      "name": "Новохоперск",
      "weight": 0,
      "geo_lat": 51.0952211,
      "geo_lon": 41.6173404,
      "region": {
        "id": 15,
        "name": "Воронежская область"
      }
    },
    {
      "id": 234,
      "region_id": 15,
      "name": "Острогожск",
      "weight": 0,
      "geo_lat": 50.8677905,
      "geo_lon": 39.0407746,
      "region": {
        "id": 15,
        "name": "Воронежская область"
      }
    },
    {
      "id": 235,
      "region_id": 15,
      "name": "Павловск",
      "weight": 0,
      "geo_lat": 50.453455,
      "geo_lon": 40.136874,
      "region": {
        "id": 15,
        "name": "Воронежская область"
      }
    },
    {
      "id": 236,
      "region_id": 15,
      "name": "Поворино",
      "weight": 0,
      "geo_lat": 51.1954419,
      "geo_lon": 42.2472726,
      "region": {
        "id": 15,
        "name": "Воронежская область"
      }
    },
    {
      "id": 237,
      "region_id": 15,
      "name": "Россошь",
      "weight": 0,
      "geo_lat": 50.1701949,
      "geo_lon": 39.6226965,
      "region": {
        "id": 15,
        "name": "Воронежская область"
      }
    },
    {
      "id": 238,
      "region_id": 15,
      "name": "Семилуки",
      "weight": 0,
      "geo_lat": 51.6951644,
      "geo_lon": 39.0190454,
      "region": {
        "id": 15,
        "name": "Воронежская область"
      }
    },
    {
      "id": 239,
      "region_id": 15,
      "name": "Эртиль",
      "weight": 0,
      "geo_lat": 51.830932,
      "geo_lon": 40.8074182,
      "region": {
        "id": 15,
        "name": "Воронежская область"
      }
    },
    {
      "id": 240,
      "region_id": 59,
      "name": "Буйнакск",
      "weight": 0,
      "geo_lat": 42.8214424,
      "geo_lon": 47.1165263,
      "region": {
        "id": 59,
        "name": "Дагестан республика"
      }
    },
    {
      "id": 241,
      "region_id": 59,
      "name": "Дагестанские Огни",
      "weight": 0,
      "geo_lat": 42.1152296,
      "geo_lon": 48.1939354,
      "region": {
        "id": 59,
        "name": "Дагестан республика"
      }
    },
    {
      "id": 242,
      "region_id": 59,
      "name": "Дербент",
      "weight": 0,
      "geo_lat": 42.058966,
      "geo_lon": 48.2907452,
      "region": {
        "id": 59,
        "name": "Дагестан республика"
      }
    },
    {
      "id": 243,
      "region_id": 59,
      "name": "Избербаш",
      "weight": 0,
      "geo_lat": 42.5650962,
      "geo_lon": 47.8710051,
      "region": {
        "id": 59,
        "name": "Дагестан республика"
      }
    },
    {
      "id": 244,
      "region_id": 59,
      "name": "Каспийск",
      "weight": 0,
      "geo_lat": 42.8916007,
      "geo_lon": 47.6367066,
      "region": {
        "id": 59,
        "name": "Дагестан республика"
      }
    },
    {
      "id": 245,
      "region_id": 59,
      "name": "Кизилюрт",
      "weight": 0,
      "geo_lat": 43.203825,
      "geo_lon": 46.8729636,
      "region": {
        "id": 59,
        "name": "Дагестан республика"
      }
    },
    {
      "id": 246,
      "region_id": 59,
      "name": "Кизляр",
      "weight": 0,
      "geo_lat": 43.8484083,
      "geo_lon": 46.7233699,
      "region": {
        "id": 59,
        "name": "Дагестан республика"
      }
    },
    {
      "id": 247,
      "region_id": 59,
      "name": "Махачкала",
      "weight": 0,
      "geo_lat": 42.9849159,
      "geo_lon": 47.5047181,
      "region": {
        "id": 59,
        "name": "Дагестан республика"
      }
    },
    {
      "id": 248,
      "region_id": 59,
      "name": "Хасавюрт",
      "weight": 0,
      "geo_lat": 43.2504665,
      "geo_lon": 46.5851292,
      "region": {
        "id": 59,
        "name": "Дагестан республика"
      }
    },
    {
      "id": 249,
      "region_id": 59,
      "name": "Южно-Сухокумск",
      "weight": 0,
      "geo_lat": 44.6602467,
      "geo_lon": 45.6499523,
      "region": {
        "id": 59,
        "name": "Дагестан республика"
      }
    },
    {
      "id": 250,
      "region_id": 80,
      "name": "Биробиджан",
      "weight": 0,
      "geo_lat": 48.7946446,
      "geo_lon": 132.9217207,
      "region": {
        "id": 80,
        "name": "Еврейская автономная область"
      }
    },
    {
      "id": 251,
      "region_id": 80,
      "name": "Облучье",
      "weight": 0,
      "geo_lat": 49.0189345,
      "geo_lon": 131.0540102,
      "region": {
        "id": 80,
        "name": "Еврейская автономная область"
      }
    },
    {
      "id": 252,
      "region_id": 79,
      "name": "Балей",
      "weight": 0,
      "geo_lat": 51.5823759,
      "geo_lon": 116.6379549,
      "region": {
        "id": 79,
        "name": "Забайкальский край"
      }
    },
    {
      "id": 253,
      "region_id": 79,
      "name": "Борзя",
      "weight": 0,
      "geo_lat": 50.3876058,
      "geo_lon": 116.5234779,
      "region": {
        "id": 79,
        "name": "Забайкальский край"
      }
    },
    {
      "id": 254,
      "region_id": 79,
      "name": "Краснокаменск",
      "weight": 0,
      "geo_lat": 50.0929703,
      "geo_lon": 118.0323936,
      "region": {
        "id": 79,
        "name": "Забайкальский край"
      }
    },
    {
      "id": 255,
      "region_id": 79,
      "name": "Могоча",
      "weight": 0,
      "geo_lat": 53.7361398,
      "geo_lon": 119.7660867,
      "region": {
        "id": 79,
        "name": "Забайкальский край"
      }
    },
    {
      "id": 256,
      "region_id": 79,
      "name": "Нерчинск",
      "weight": 0,
      "geo_lat": 51.9594977,
      "geo_lon": 116.5852383,
      "region": {
        "id": 79,
        "name": "Забайкальский край"
      }
    },
    {
      "id": 257,
      "region_id": 79,
      "name": "Петровск-Забайкальский",
      "weight": 0,
      "geo_lat": 51.2748592,
      "geo_lon": 108.846681,
      "region": {
        "id": 79,
        "name": "Забайкальский край"
      }
    },
    {
      "id": 258,
      "region_id": 79,
      "name": "Сретенск",
      "weight": 0,
      "geo_lat": 52.2461454,
      "geo_lon": 117.7117842,
      "region": {
        "id": 79,
        "name": "Забайкальский край"
      }
    },
    {
      "id": 259,
      "region_id": 79,
      "name": "Хилок",
      "weight": 0,
      "geo_lat": 51.3634856,
      "geo_lon": 110.4590898,
      "region": {
        "id": 79,
        "name": "Забайкальский край"
      }
    },
    {
      "id": 260,
      "region_id": 79,
      "name": "Чита",
      "weight": 0,
      "geo_lat": 52.0340142,
      "geo_lon": 113.4994,
      "region": {
        "id": 79,
        "name": "Забайкальский край"
      }
    },
    {
      "id": 261,
      "region_id": 79,
      "name": "Шилка",
      "weight": 0,
      "geo_lat": 51.8497035,
      "geo_lon": 116.0334461,
      "region": {
        "id": 79,
        "name": "Забайкальский край"
      }
    },
    {
      "id": 262,
      "region_id": 36,
      "name": "Вичуга",
      "weight": 0,
      "geo_lat": 57.2044698,
      "geo_lon": 41.9132201,
      "region": {
        "id": 36,
        "name": "Ивановская область"
      }
    },
    {
      "id": 263,
      "region_id": 36,
      "name": "Гаврилов Посад",
      "weight": 0,
      "geo_lat": 56.5586946,
      "geo_lon": 40.1228906,
      "region": {
        "id": 36,
        "name": "Ивановская область"
      }
    },
    {
      "id": 264,
      "region_id": 36,
      "name": "Заволжск",
      "weight": 0,
      "geo_lat": 57.4918141,
      "geo_lon": 42.1375625,
      "region": {
        "id": 36,
        "name": "Ивановская область"
      }
    },
    {
      "id": 265,
      "region_id": 36,
      "name": "Кинешма",
      "weight": 0,
      "geo_lat": 57.4425463,
      "geo_lon": 42.168914,
      "region": {
        "id": 36,
        "name": "Ивановская область"
      }
    },
    {
      "id": 266,
      "region_id": 36,
      "name": "Комсомольск",
      "weight": 0,
      "geo_lat": 57.0273052,
      "geo_lon": 40.3776851,
      "region": {
        "id": 36,
        "name": "Ивановская область"
      }
    },
    {
      "id": 267,
      "region_id": 36,
      "name": "Кохма",
      "weight": 0,
      "geo_lat": 56.9324606,
      "geo_lon": 41.0931657,
      "region": {
        "id": 36,
        "name": "Ивановская область"
      }
    },
    {
      "id": 268,
      "region_id": 36,
      "name": "Наволоки",
      "weight": 0,
      "geo_lat": 57.4679066,
      "geo_lon": 41.9608002,
      "region": {
        "id": 36,
        "name": "Ивановская область"
      }
    },
    {
      "id": 269,
      "region_id": 36,
      "name": "Плес",
      "weight": 0,
      "geo_lat": 57.4606031,
      "geo_lon": 41.5122672,
      "region": {
        "id": 36,
        "name": "Ивановская область"
      }
    },
    {
      "id": 270,
      "region_id": 36,
      "name": "Приволжск",
      "weight": 0,
      "geo_lat": 57.3805743,
      "geo_lon": 41.2808565,
      "region": {
        "id": 36,
        "name": "Ивановская область"
      }
    },
    {
      "id": 271,
      "region_id": 36,
      "name": "Пучеж",
      "weight": 0,
      "geo_lat": 56.9820688,
      "geo_lon": 43.1683321,
      "region": {
        "id": 36,
        "name": "Ивановская область"
      }
    },
    {
      "id": 272,
      "region_id": 36,
      "name": "Родники",
      "weight": 0,
      "geo_lat": 57.1025975,
      "geo_lon": 41.7298834,
      "region": {
        "id": 36,
        "name": "Ивановская область"
      }
    },
    {
      "id": 273,
      "region_id": 36,
      "name": "Тейково",
      "weight": 0,
      "geo_lat": 56.8542719,
      "geo_lon": 40.5353874,
      "region": {
        "id": 36,
        "name": "Ивановская область"
      }
    },
    {
      "id": 274,
      "region_id": 36,
      "name": "Фурманов",
      "weight": 0,
      "geo_lat": 57.2539276,
      "geo_lon": 41.1054432,
      "region": {
        "id": 36,
        "name": "Ивановская область"
      }
    },
    {
      "id": 275,
      "region_id": 36,
      "name": "Шуя",
      "weight": 0,
      "geo_lat": 56.8560234,
      "geo_lon": 41.3800939,
      "region": {
        "id": 36,
        "name": "Ивановская область"
      }
    },
    {
      "id": 276,
      "region_id": 36,
      "name": "Южа",
      "weight": 0,
      "geo_lat": 56.5926877,
      "geo_lon": 42.0458099,
      "region": {
        "id": 36,
        "name": "Ивановская область"
      }
    },
    {
      "id": 277,
      "region_id": 36,
      "name": "Юрьевец",
      "weight": 0,
      "geo_lat": 57.3177781,
      "geo_lon": 43.1110401,
      "region": {
        "id": 36,
        "name": "Ивановская область"
      }
    },
    {
      "id": 278,
      "region_id": 60,
      "name": "Карабулак",
      "weight": 0,
      "geo_lat": 43.3055248,
      "geo_lon": 44.9094582,
      "region": {
        "id": 60,
        "name": "Ингушетия республика"
      }
    },
    {
      "id": 279,
      "region_id": 60,
      "name": "Магас",
      "weight": 0,
      "geo_lat": 43.1688611,
      "geo_lon": 44.8131207,
      "region": {
        "id": 60,
        "name": "Ингушетия республика"
      }
    },
    {
      "id": 280,
      "region_id": 60,
      "name": "Малгобек",
      "weight": 0,
      "geo_lat": 43.5096646,
      "geo_lon": 44.5901963,
      "region": {
        "id": 60,
        "name": "Ингушетия республика"
      }
    },
    {
      "id": 281,
      "region_id": 60,
      "name": "Назрань",
      "weight": 0,
      "geo_lat": 43.2257841,
      "geo_lon": 44.7645779,
      "region": {
        "id": 60,
        "name": "Ингушетия республика"
      }
    },
    {
      "id": 282,
      "region_id": 60,
      "name": "Сунжа",
      "weight": 0,
      "geo_lat": 43.3204196,
      "geo_lon": 45.0476331,
      "region": {
        "id": 60,
        "name": "Ингушетия республика"
      }
    },
    {
      "id": 283,
      "region_id": 38,
      "name": "Алзамай",
      "weight": 0,
      "geo_lat": 55.5551233,
      "geo_lon": 98.6643699,
      "region": {
        "id": 38,
        "name": "Иркутская область"
      }
    },
    {
      "id": 284,
      "region_id": 38,
      "name": "Ангарск",
      "weight": 0,
      "geo_lat": 52.544879,
      "geo_lon": 103.888543,
      "region": {
        "id": 38,
        "name": "Иркутская область"
      }
    },
    {
      "id": 285,
      "region_id": 38,
      "name": "Байкальск",
      "weight": 0,
      "geo_lat": 51.5230393,
      "geo_lon": 104.1487532,
      "region": {
        "id": 38,
        "name": "Иркутская область"
      }
    },
    {
      "id": 286,
      "region_id": 38,
      "name": "Бирюсинск",
      "weight": 0,
      "geo_lat": 55.9609167,
      "geo_lon": 97.8205348,
      "region": {
        "id": 38,
        "name": "Иркутская область"
      }
    },
    {
      "id": 287,
      "region_id": 38,
      "name": "Бодайбо",
      "weight": 0,
      "geo_lat": 57.8468636,
      "geo_lon": 114.1866287,
      "region": {
        "id": 38,
        "name": "Иркутская область"
      }
    },
    {
      "id": 288,
      "region_id": 38,
      "name": "Братск",
      "weight": 0,
      "geo_lat": 56.1513108,
      "geo_lon": 101.6340035,
      "region": {
        "id": 38,
        "name": "Иркутская область"
      }
    },
    {
      "id": 289,
      "region_id": 38,
      "name": "Вихоревка",
      "weight": 0,
      "geo_lat": 56.1208145,
      "geo_lon": 101.1702926,
      "region": {
        "id": 38,
        "name": "Иркутская область"
      }
    },
    {
      "id": 290,
      "region_id": 38,
      "name": "Железногорск-Илимский",
      "weight": 0,
      "geo_lat": 56.5847888,
      "geo_lon": 104.114275,
      "region": {
        "id": 38,
        "name": "Иркутская область"
      }
    },
    {
      "id": 291,
      "region_id": 38,
      "name": "Зима",
      "weight": 0,
      "geo_lat": 53.920693,
      "geo_lon": 102.0491772,
      "region": {
        "id": 38,
        "name": "Иркутская область"
      }
    },
    {
      "id": 292,
      "region_id": 38,
      "name": "Киренск",
      "weight": 0,
      "geo_lat": 57.7756595,
      "geo_lon": 108.1109412,
      "region": {
        "id": 38,
        "name": "Иркутская область"
      }
    },
    {
      "id": 293,
      "region_id": 38,
      "name": "Нижнеудинск",
      "weight": 0,
      "geo_lat": 54.8968931,
      "geo_lon": 99.0314056,
      "region": {
        "id": 38,
        "name": "Иркутская область"
      }
    },
    {
      "id": 294,
      "region_id": 38,
      "name": "Саянск",
      "weight": 0,
      "geo_lat": 54.1107238,
      "geo_lon": 102.18015,
      "region": {
        "id": 38,
        "name": "Иркутская область"
      }
    },
    {
      "id": 295,
      "region_id": 38,
      "name": "Свирск",
      "weight": 0,
      "geo_lat": 53.0842668,
      "geo_lon": 103.3364093,
      "region": {
        "id": 38,
        "name": "Иркутская область"
      }
    },
    {
      "id": 296,
      "region_id": 38,
      "name": "Слюдянка",
      "weight": 0,
      "geo_lat": 51.6563983,
      "geo_lon": 103.7187545,
      "region": {
        "id": 38,
        "name": "Иркутская область"
      }
    },
    {
      "id": 297,
      "region_id": 38,
      "name": "Тайшет",
      "weight": 0,
      "geo_lat": 55.9405334,
      "geo_lon": 98.0030145,
      "region": {
        "id": 38,
        "name": "Иркутская область"
      }
    },
    {
      "id": 298,
      "region_id": 38,
      "name": "Тулун",
      "weight": 0,
      "geo_lat": 54.557162,
      "geo_lon": 100.5780603,
      "region": {
        "id": 38,
        "name": "Иркутская область"
      }
    },
    {
      "id": 299,
      "region_id": 38,
      "name": "Усолье-Сибирское",
      "weight": 0,
      "geo_lat": 52.7565808,
      "geo_lon": 103.6388109,
      "region": {
        "id": 38,
        "name": "Иркутская область"
      }
    },
    {
      "id": 300,
      "region_id": 38,
      "name": "Усть-Илимск",
      "weight": 0,
      "geo_lat": 57.9430504,
      "geo_lon": 102.7415734,
      "region": {
        "id": 38,
        "name": "Иркутская область"
      }
    },
    {
      "id": 301,
      "region_id": 38,
      "name": "Усть-Кут",
      "weight": 0,
      "geo_lat": 56.7928178,
      "geo_lon": 105.7757343,
      "region": {
        "id": 38,
        "name": "Иркутская область"
      }
    },
    {
      "id": 302,
      "region_id": 38,
      "name": "Черемхово",
      "weight": 0,
      "geo_lat": 53.1369095,
      "geo_lon": 103.0901268,
      "region": {
        "id": 38,
        "name": "Иркутская область"
      }
    },
    {
      "id": 303,
      "region_id": 38,
      "name": "Шелехов",
      "weight": 0,
      "geo_lat": 52.2102538,
      "geo_lon": 104.0973294,
      "region": {
        "id": 38,
        "name": "Иркутская область"
      }
    },
    {
      "id": 304,
      "region_id": 61,
      "name": "Баксан",
      "weight": 0,
      "geo_lat": 43.6819137,
      "geo_lon": 43.5345036,
      "region": {
        "id": 61,
        "name": "Кабардино-Балкарская республика"
      }
    },
    {
      "id": 305,
      "region_id": 61,
      "name": "Майский",
      "weight": 0,
      "geo_lat": 43.6281516,
      "geo_lon": 44.0517314,
      "region": {
        "id": 61,
        "name": "Кабардино-Балкарская республика"
      }
    },
    {
      "id": 306,
      "region_id": 61,
      "name": "Нальчик",
      "weight": 0,
      "geo_lat": 43.4845464,
      "geo_lon": 43.60713,
      "region": {
        "id": 61,
        "name": "Кабардино-Балкарская республика"
      }
    },
    {
      "id": 307,
      "region_id": 61,
      "name": "Нарткала",
      "weight": 0,
      "geo_lat": 43.5578075,
      "geo_lon": 43.8575925,
      "region": {
        "id": 61,
        "name": "Кабардино-Балкарская республика"
      }
    },
    {
      "id": 308,
      "region_id": 61,
      "name": "Прохладный",
      "weight": 0,
      "geo_lat": 43.7589602,
      "geo_lon": 44.0102409,
      "region": {
        "id": 61,
        "name": "Кабардино-Балкарская республика"
      }
    },
    {
      "id": 309,
      "region_id": 61,
      "name": "Терек",
      "weight": 0,
      "geo_lat": 43.4839358,
      "geo_lon": 44.1402161,
      "region": {
        "id": 61,
        "name": "Кабардино-Балкарская республика"
      }
    },
    {
      "id": 310,
      "region_id": 61,
      "name": "Тырныауз",
      "weight": 0,
      "geo_lat": 43.3981585,
      "geo_lon": 42.9213582,
      "region": {
        "id": 61,
        "name": "Кабардино-Балкарская республика"
      }
    },
    {
      "id": 311,
      "region_id": 61,
      "name": "Чегем",
      "weight": 0,
      "geo_lat": 43.5671525,
      "geo_lon": 43.5865792,
      "region": {
        "id": 61,
        "name": "Кабардино-Балкарская республика"
      }
    },
    {
      "id": 312,
      "region_id": 41,
      "name": "Багратионовск",
      "weight": 0,
      "geo_lat": 54.3866518,
      "geo_lon": 20.6418091,
      "region": {
        "id": 41,
        "name": "Калининградская область"
      }
    },
    {
      "id": 313,
      "region_id": 41,
      "name": "Балтийск",
      "weight": 0,
      "geo_lat": 54.6513372,
      "geo_lon": 19.9140572,
      "region": {
        "id": 41,
        "name": "Калининградская область"
      }
    },
    {
      "id": 314,
      "region_id": 41,
      "name": "Гвардейск",
      "weight": 0,
      "geo_lat": 54.6588378,
      "geo_lon": 21.0501388,
      "region": {
        "id": 41,
        "name": "Калининградская область"
      }
    },
    {
      "id": 315,
      "region_id": 41,
      "name": "Гурьевск",
      "weight": 0,
      "geo_lat": 54.770638,
      "geo_lon": 20.6039767,
      "region": {
        "id": 41,
        "name": "Калининградская область"
      },
      "has_name_dupe": true
    },
    {
      "id": 316,
      "region_id": 41,
      "name": "Гусев",
      "weight": 0,
      "geo_lat": 54.5915455,
      "geo_lon": 22.1942445,
      "region": {
        "id": 41,
        "name": "Калининградская область"
      }
    },
    {
      "id": 317,
      "region_id": 41,
      "name": "Зеленоградск",
      "weight": 0,
      "geo_lat": 54.9600185,
      "geo_lon": 20.4753652,
      "region": {
        "id": 41,
        "name": "Калининградская область"
      }
    },
    {
      "id": 318,
      "region_id": 41,
      "name": "Краснознаменск",
      "weight": 0,
      "geo_lat": 54.9453423,
      "geo_lon": 22.4928745,
      "region": {
        "id": 41,
        "name": "Калининградская область"
      },
      "has_name_dupe": true
    },
    {
      "id": 319,
      "region_id": 41,
      "name": "Ладушкин",
      "weight": 0,
      "geo_lat": 54.5692156,
      "geo_lon": 20.1690153,
      "region": {
        "id": 41,
        "name": "Калининградская область"
      }
    },
    {
      "id": 320,
      "region_id": 41,
      "name": "Мамоново",
      "weight": 0,
      "geo_lat": 54.4646036,
      "geo_lon": 19.9453482,
      "region": {
        "id": 41,
        "name": "Калининградская область"
      }
    },
    {
      "id": 321,
      "region_id": 41,
      "name": "Неман",
      "weight": 0,
      "geo_lat": 55.0316524,
      "geo_lon": 22.0324064,
      "region": {
        "id": 41,
        "name": "Калининградская область"
      }
    },
    {
      "id": 322,
      "region_id": 41,
      "name": "Нестеров",
      "weight": 0,
      "geo_lat": 54.6313814,
      "geo_lon": 22.5713736,
      "region": {
        "id": 41,
        "name": "Калининградская область"
      }
    },
    {
      "id": 323,
      "region_id": 41,
      "name": "Озерск",
      "weight": 0,
      "geo_lat": 54.4084705,
      "geo_lon": 22.0134438,
      "region": {
        "id": 41,
        "name": "Калининградская область"
      },
      "has_name_dupe": true
    },
    {
      "id": 324,
      "region_id": 41,
      "name": "Пионерский",
      "weight": 0,
      "geo_lat": 54.9516574,
      "geo_lon": 20.2277424,
      "region": {
        "id": 41,
        "name": "Калининградская область"
      }
    },
    {
      "id": 325,
      "region_id": 41,
      "name": "Полесск",
      "weight": 0,
      "geo_lat": 54.8625126,
      "geo_lon": 21.0998067,
      "region": {
        "id": 41,
        "name": "Калининградская область"
      }
    },
    {
      "id": 326,
      "region_id": 41,
      "name": "Правдинск",
      "weight": 0,
      "geo_lat": 54.4430986,
      "geo_lon": 21.0085269,
      "region": {
        "id": 41,
        "name": "Калининградская область"
      }
    },
    {
      "id": 327,
      "region_id": 41,
      "name": "Приморск",
      "weight": 0,
      "geo_lat": 54.7311437,
      "geo_lon": 19.9981926,
      "region": {
        "id": 41,
        "name": "Калининградская область"
      },
      "has_name_dupe": true
    },
    {
      "id": 328,
      "region_id": 41,
      "name": "Светлогорск",
      "weight": 0,
      "geo_lat": 54.9439286,
      "geo_lon": 20.1514295,
      "region": {
        "id": 41,
        "name": "Калининградская область"
      }
    },
    {
      "id": 329,
      "region_id": 41,
      "name": "Светлый",
      "weight": 0,
      "geo_lat": 54.6772897,
      "geo_lon": 20.1357595,
      "region": {
        "id": 41,
        "name": "Калининградская область"
      }
    },
    {
      "id": 330,
      "region_id": 41,
      "name": "Славск",
      "weight": 0,
      "geo_lat": 55.0449714,
      "geo_lon": 21.6742367,
      "region": {
        "id": 41,
        "name": "Калининградская область"
      }
    },
    {
      "id": 331,
      "region_id": 41,
      "name": "Советск",
      "weight": 0,
      "geo_lat": 55.0809336,
      "geo_lon": 21.8886106,
      "region": {
        "id": 41,
        "name": "Калининградская область"
      },
      "has_name_dupe": true
    },
    {
      "id": 332,
      "region_id": 41,
      "name": "Черняховск",
      "weight": 0,
      "geo_lat": 54.6244751,
      "geo_lon": 21.7969062,
      "region": {
        "id": 41,
        "name": "Калининградская область"
      }
    },
    {
      "id": 333,
      "region_id": 62,
      "name": "Городовиковск",
      "weight": 0,
      "geo_lat": 46.0875083,
      "geo_lon": 41.935537,
      "region": {
        "id": 62,
        "name": "Калмыкия республика"
      }
    },
    {
      "id": 334,
      "region_id": 62,
      "name": "Лагань",
      "weight": 0,
      "geo_lat": 45.3930912,
      "geo_lon": 47.3432602,
      "region": {
        "id": 62,
        "name": "Калмыкия республика"
      }
    },
    {
      "id": 335,
      "region_id": 62,
      "name": "Элиста",
      "weight": 0,
      "geo_lat": 46.3083344,
      "geo_lon": 44.2702088,
      "region": {
        "id": 62,
        "name": "Калмыкия республика"
      }
    },
    {
      "id": 336,
      "region_id": 26,
      "name": "Балабаново",
      "weight": 0,
      "geo_lat": 55.1773714,
      "geo_lon": 36.6566951,
      "region": {
        "id": 26,
        "name": "Калужская область"
      }
    },
    {
      "id": 337,
      "region_id": 26,
      "name": "Белоусово",
      "weight": 0,
      "geo_lat": 55.0956803,
      "geo_lon": 36.677629,
      "region": {
        "id": 26,
        "name": "Калужская область"
      }
    },
    {
      "id": 338,
      "region_id": 26,
      "name": "Боровск",
      "weight": 0,
      "geo_lat": 55.2130096,
      "geo_lon": 36.4926251,
      "region": {
        "id": 26,
        "name": "Калужская область"
      }
    },
    {
      "id": 339,
      "region_id": 26,
      "name": "Ермолино",
      "weight": 0,
      "geo_lat": 55.1971758,
      "geo_lon": 36.5952722,
      "region": {
        "id": 26,
        "name": "Калужская область"
      }
    },
    {
      "id": 340,
      "region_id": 26,
      "name": "Жиздра",
      "weight": 0,
      "geo_lat": 53.7521926,
      "geo_lon": 34.7386592,
      "region": {
        "id": 26,
        "name": "Калужская область"
      }
    },
    {
      "id": 341,
      "region_id": 26,
      "name": "Жуков",
      "weight": 0,
      "geo_lat": 55.0301833,
      "geo_lon": 36.7394903,
      "region": {
        "id": 26,
        "name": "Калужская область"
      }
    },
    {
      "id": 342,
      "region_id": 26,
      "name": "Киров",
      "weight": 0,
      "geo_lat": 54.0790111,
      "geo_lon": 34.3076201,
      "region": {
        "id": 26,
        "name": "Калужская область"
      },
      "has_name_dupe": true
    },
    {
      "id": 343,
      "region_id": 26,
      "name": "Козельск",
      "weight": 0,
      "geo_lat": 54.0347201,
      "geo_lon": 35.780768,
      "region": {
        "id": 26,
        "name": "Калужская область"
      }
    },
    {
      "id": 344,
      "region_id": 26,
      "name": "Кондрово",
      "weight": 0,
      "geo_lat": 54.7959473,
      "geo_lon": 35.9274842,
      "region": {
        "id": 26,
        "name": "Калужская область"
      }
    },
    {
      "id": 345,
      "region_id": 26,
      "name": "Кременки",
      "weight": 0,
      "geo_lat": 54.8862447,
      "geo_lon": 37.1168701,
      "region": {
        "id": 26,
        "name": "Калужская область"
      }
    },
    {
      "id": 346,
      "region_id": 26,
      "name": "Людиново",
      "weight": 0,
      "geo_lat": 53.8700828,
      "geo_lon": 34.4385915,
      "region": {
        "id": 26,
        "name": "Калужская область"
      }
    },
    {
      "id": 347,
      "region_id": 26,
      "name": "Малоярославец",
      "weight": 0,
      "geo_lat": 55.0177123,
      "geo_lon": 36.4633603,
      "region": {
        "id": 26,
        "name": "Калужская область"
      }
    },
    {
      "id": 348,
      "region_id": 26,
      "name": "Медынь",
      "weight": 0,
      "geo_lat": 54.9689785,
      "geo_lon": 35.8872168,
      "region": {
        "id": 26,
        "name": "Калужская область"
      }
    },
    {
      "id": 349,
      "region_id": 26,
      "name": "Мещовск",
      "weight": 0,
      "geo_lat": 54.3191471,
      "geo_lon": 35.2816918,
      "region": {
        "id": 26,
        "name": "Калужская область"
      }
    },
    {
      "id": 350,
      "region_id": 26,
      "name": "Мосальск",
      "weight": 0,
      "geo_lat": 54.4824939,
      "geo_lon": 34.9872239,
      "region": {
        "id": 26,
        "name": "Калужская область"
      }
    },
    {
      "id": 351,
      "region_id": 26,
      "name": "Обнинск",
      "weight": 0,
      "geo_lat": 55.0943144,
      "geo_lon": 36.6121639,
      "region": {
        "id": 26,
        "name": "Калужская область"
      }
    },
    {
      "id": 352,
      "region_id": 26,
      "name": "Сосенский",
      "weight": 0,
      "geo_lat": 54.0566016,
      "geo_lon": 35.9621646,
      "region": {
        "id": 26,
        "name": "Калужская область"
      }
    },
    {
      "id": 353,
      "region_id": 26,
      "name": "Спас-Деменск",
      "weight": 0,
      "geo_lat": 54.409922,
      "geo_lon": 34.0189631,
      "region": {
        "id": 26,
        "name": "Калужская область"
      }
    },
    {
      "id": 354,
      "region_id": 26,
      "name": "Сухиничи",
      "weight": 0,
      "geo_lat": 54.097296,
      "geo_lon": 35.3443568,
      "region": {
        "id": 26,
        "name": "Калужская область"
      }
    },
    {
      "id": 355,
      "region_id": 26,
      "name": "Таруса",
      "weight": 0,
      "geo_lat": 54.7236477,
      "geo_lon": 37.1671,
      "region": {
        "id": 26,
        "name": "Калужская область"
      }
    },
    {
      "id": 356,
      "region_id": 26,
      "name": "Юхнов",
      "weight": 0,
      "geo_lat": 54.7446445,
      "geo_lon": 35.2424346,
      "region": {
        "id": 26,
        "name": "Калужская область"
      }
    },
    {
      "id": 357,
      "region_id": 72,
      "name": "Вилючинск",
      "weight": 0,
      "geo_lat": 52.9302415,
      "geo_lon": 158.4057632,
      "region": {
        "id": 72,
        "name": "Камчатский край"
      }
    },
    {
      "id": 358,
      "region_id": 72,
      "name": "Елизово",
      "weight": 0,
      "geo_lat": 53.1830375,
      "geo_lon": 158.3883548,
      "region": {
        "id": 72,
        "name": "Камчатский край"
      }
    },
    {
      "id": 359,
      "region_id": 72,
      "name": "Петропавловск-Камчатский",
      "weight": 0,
      "geo_lat": 53.036908,
      "geo_lon": 158.6559254,
      "region": {
        "id": 72,
        "name": "Камчатский край"
      }
    },
    {
      "id": 360,
      "region_id": 63,
      "name": "Карачаевск",
      "weight": 0,
      "geo_lat": 43.7732525,
      "geo_lon": 41.9143472,
      "region": {
        "id": 63,
        "name": "Карачаево-Черкесская республика"
      }
    },
    {
      "id": 361,
      "region_id": 63,
      "name": "Теберда",
      "weight": 0,
      "geo_lat": 43.4437731,
      "geo_lon": 41.7415142,
      "region": {
        "id": 63,
        "name": "Карачаево-Черкесская республика"
      }
    },
    {
      "id": 362,
      "region_id": 63,
      "name": "Усть-Джегута",
      "weight": 0,
      "geo_lat": 44.0838442,
      "geo_lon": 41.9711046,
      "region": {
        "id": 63,
        "name": "Карачаево-Черкесская республика"
      }
    },
    {
      "id": 363,
      "region_id": 63,
      "name": "Черкесск",
      "weight": 0,
      "geo_lat": 44.2269425,
      "geo_lon": 42.0466704,
      "region": {
        "id": 63,
        "name": "Карачаево-Черкесская республика"
      }
    },
    {
      "id": 364,
      "region_id": 50,
      "name": "Беломорск",
      "weight": 0,
      "geo_lat": 64.5378417,
      "geo_lon": 34.7799462,
      "region": {
        "id": 50,
        "name": "Карелия республика"
      }
    },
    {
      "id": 365,
      "region_id": 50,
      "name": "Кемь",
      "weight": 0,
      "geo_lat": 64.9543539,
      "geo_lon": 34.5949263,
      "region": {
        "id": 50,
        "name": "Карелия республика"
      }
    },
    {
      "id": 366,
      "region_id": 50,
      "name": "Кондопога",
      "weight": 0,
      "geo_lat": 62.2059817,
      "geo_lon": 34.2682122,
      "region": {
        "id": 50,
        "name": "Карелия республика"
      }
    },
    {
      "id": 367,
      "region_id": 50,
      "name": "Костомукша",
      "weight": 0,
      "geo_lat": 64.5889398,
      "geo_lon": 30.6016832,
      "region": {
        "id": 50,
        "name": "Карелия республика"
      }
    },
    {
      "id": 368,
      "region_id": 50,
      "name": "Лахденпохья",
      "weight": 0,
      "geo_lat": 61.518881,
      "geo_lon": 30.1996116,
      "region": {
        "id": 50,
        "name": "Карелия республика"
      }
    },
    {
      "id": 369,
      "region_id": 50,
      "name": "Медвежьегорск",
      "weight": 0,
      "geo_lat": 62.9127626,
      "geo_lon": 34.4568489,
      "region": {
        "id": 50,
        "name": "Карелия республика"
      }
    },
    {
      "id": 370,
      "region_id": 50,
      "name": "Олонец",
      "weight": 0,
      "geo_lat": 60.9794025,
      "geo_lon": 32.9725519,
      "region": {
        "id": 50,
        "name": "Карелия республика"
      }
    },
    {
      "id": 371,
      "region_id": 50,
      "name": "Питкяранта",
      "weight": 0,
      "geo_lat": 61.5757191,
      "geo_lon": 31.4640557,
      "region": {
        "id": 50,
        "name": "Карелия республика"
      }
    },
    {
      "id": 372,
      "region_id": 50,
      "name": "Пудож",
      "weight": 0,
      "geo_lat": 61.8058821,
      "geo_lon": 36.5329941,
      "region": {
        "id": 50,
        "name": "Карелия республика"
      }
    },
    {
      "id": 373,
      "region_id": 50,
      "name": "Сегежа",
      "weight": 0,
      "geo_lat": 63.7437572,
      "geo_lon": 34.3126982,
      "region": {
        "id": 50,
        "name": "Карелия республика"
      }
    },
    {
      "id": 374,
      "region_id": 50,
      "name": "Сортавала",
      "weight": 0,
      "geo_lat": 61.703367,
      "geo_lon": 30.6916998,
      "region": {
        "id": 50,
        "name": "Карелия республика"
      }
    },
    {
      "id": 375,
      "region_id": 50,
      "name": "Суоярви",
      "weight": 0,
      "geo_lat": 62.0787293,
      "geo_lon": 32.3499386,
      "region": {
        "id": 50,
        "name": "Карелия республика"
      }
    },
    {
      "id": 376,
      "region_id": 73,
      "name": "Анжеро-Судженск",
      "weight": 0,
      "geo_lat": 56.0786281,
      "geo_lon": 86.0201278,
      "region": {
        "id": 73,
        "name": "Кемеровская область - Кузбасс"
      }
    },
    {
      "id": 377,
      "region_id": 73,
      "name": "Белово",
      "weight": 0,
      "geo_lat": 54.4220968,
      "geo_lon": 86.3037373,
      "region": {
        "id": 73,
        "name": "Кемеровская область - Кузбасс"
      }
    },
    {
      "id": 378,
      "region_id": 73,
      "name": "Березовский",
      "weight": 0,
      "geo_lat": 55.6693513,
      "geo_lon": 86.2744459,
      "region": {
        "id": 73,
        "name": "Кемеровская область - Кузбасс"
      },
      "has_name_dupe": true
    },
    {
      "id": 379,
      "region_id": 73,
      "name": "Гурьевск",
      "weight": 0,
      "geo_lat": 54.2859263,
      "geo_lon": 85.9475985,
      "region": {
        "id": 73,
        "name": "Кемеровская область - Кузбасс"
      },
      "has_name_dupe": true
    },
    {
      "id": 380,
      "region_id": 73,
      "name": "Калтан",
      "weight": 0,
      "geo_lat": 53.5210919,
      "geo_lon": 87.2771636,
      "region": {
        "id": 73,
        "name": "Кемеровская область - Кузбасс"
      }
    },
    {
      "id": 381,
      "region_id": 73,
      "name": "Кемерово",
      "paraphrasing": [
        "Кемерун"
      ],
      "weight": 0,
      "geo_lat": 55.3910651,
      "geo_lon": 86.0467781,
      "region": {
        "id": 73,
        "name": "Кемеровская область - Кузбасс"
      },
      "has_name_dupe": true
    },
    {
      "id": 382,
      "region_id": 73,
      "name": "Киселевск",
      "weight": 0,
      "geo_lat": 54.0059999,
      "geo_lon": 86.6366116,
      "region": {
        "id": 73,
        "name": "Кемеровская область - Кузбасс"
      }
    },
    {
      "id": 383,
      "region_id": 73,
      "name": "Ленинск-Кузнецкий",
      "weight": 0,
      "geo_lat": 54.6674492,
      "geo_lon": 86.1797324,
      "region": {
        "id": 73,
        "name": "Кемеровская область - Кузбасс"
      }
    },
    {
      "id": 384,
      "region_id": 73,
      "name": "Мариинск",
      "weight": 0,
      "geo_lat": 56.2127383,
      "geo_lon": 87.7454924,
      "region": {
        "id": 73,
        "name": "Кемеровская область - Кузбасс"
      }
    },
    {
      "id": 385,
      "region_id": 73,
      "name": "Междуреченск",
      "weight": 0,
      "geo_lat": 53.6865289,
      "geo_lon": 88.0702754,
      "region": {
        "id": 73,
        "name": "Кемеровская область - Кузбасс"
      }
    },
    {
      "id": 386,
      "region_id": 73,
      "name": "Мыски",
      "weight": 0,
      "geo_lat": 53.7125695,
      "geo_lon": 87.8055646,
      "region": {
        "id": 73,
        "name": "Кемеровская область - Кузбасс"
      }
    },
    {
      "id": 387,
      "region_id": 73,
      "name": "Новокузнецк",
      "weight": 0,
      "geo_lat": 53.794315,
      "geo_lon": 87.2142745,
      "region": {
        "id": 73,
        "name": "Кемеровская область - Кузбасс"
      },
      "has_name_dupe": true
    },
    {
      "id": 388,
      "region_id": 73,
      "name": "Осинники",
      "weight": 0,
      "geo_lat": 53.5988055,
      "geo_lon": 87.3371272,
      "region": {
        "id": 73,
        "name": "Кемеровская область - Кузбасс"
      }
    },
    {
      "id": 389,
      "region_id": 73,
      "name": "Полысаево",
      "weight": 0,
      "geo_lat": 54.6055,
      "geo_lon": 86.2809208,
      "region": {
        "id": 73,
        "name": "Кемеровская область - Кузбасс"
      }
    },
    {
      "id": 390,
      "region_id": 73,
      "name": "Прокопьевск",
      "weight": 0,
      "geo_lat": 53.8604265,
      "geo_lon": 86.7183577,
      "region": {
        "id": 73,
        "name": "Кемеровская область - Кузбасс"
      }
    },
    {
      "id": 391,
      "region_id": 73,
      "name": "Салаир",
      "weight": 0,
      "geo_lat": 54.2351735,
      "geo_lon": 85.8030733,
      "region": {
        "id": 73,
        "name": "Кемеровская область - Кузбасс"
      }
    },
    {
      "id": 392,
      "region_id": 73,
      "name": "Тайга",
      "weight": 0,
      "geo_lat": 56.0622131,
      "geo_lon": 85.6207182,
      "region": {
        "id": 73,
        "name": "Кемеровская область - Кузбасс"
      }
    },
    {
      "id": 393,
      "region_id": 73,
      "name": "Таштагол",
      "weight": 0,
      "geo_lat": 52.759313,
      "geo_lon": 87.8476546,
      "region": {
        "id": 73,
        "name": "Кемеровская область - Кузбасс"
      }
    },
    {
      "id": 394,
      "region_id": 73,
      "name": "Топки",
      "weight": 0,
      "geo_lat": 55.2764707,
      "geo_lon": 85.6152619,
      "region": {
        "id": 73,
        "name": "Кемеровская область - Кузбасс"
      }
    },
    {
      "id": 395,
      "region_id": 73,
      "name": "Юрга",
      "weight": 0,
      "geo_lat": 55.7202694,
      "geo_lon": 84.8886399,
      "region": {
        "id": 73,
        "name": "Кемеровская область - Кузбасс"
      }
    },
    {
      "id": 396,
      "region_id": 42,
      "name": "Белая Холуница",
      "weight": 0,
      "geo_lat": 58.8415239,
      "geo_lon": 50.8460699,
      "region": {
        "id": 42,
        "name": "Кировская область"
      }
    },
    {
      "id": 397,
      "region_id": 42,
      "name": "Вятские Поляны",
      "weight": 0,
      "geo_lat": 56.2284817,
      "geo_lon": 51.0614855,
      "region": {
        "id": 42,
        "name": "Кировская область"
      }
    },
    {
      "id": 398,
      "region_id": 42,
      "name": "Зуевка",
      "weight": 0,
      "geo_lat": 58.4032152,
      "geo_lon": 51.1331606,
      "region": {
        "id": 42,
        "name": "Кировская область"
      }
    },
    {
      "id": 399,
      "region_id": 42,
      "name": "Кирово-Чепецк",
      "weight": 0,
      "geo_lat": 58.5559424,
      "geo_lon": 50.0316848,
      "region": {
        "id": 42,
        "name": "Кировская область"
      }
    },
    {
      "id": 400,
      "region_id": 42,
      "name": "Кирс",
      "weight": 0,
      "geo_lat": 59.340056,
      "geo_lon": 52.2414437,
      "region": {
        "id": 42,
        "name": "Кировская область"
      }
    },
    {
      "id": 401,
      "region_id": 42,
      "name": "Котельнич",
      "weight": 0,
      "geo_lat": 58.3034832,
      "geo_lon": 48.3475597,
      "region": {
        "id": 42,
        "name": "Кировская область"
      }
    },
    {
      "id": 402,
      "region_id": 42,
      "name": "Луза",
      "weight": 0,
      "geo_lat": 60.6290609,
      "geo_lon": 47.2612445,
      "region": {
        "id": 42,
        "name": "Кировская область"
      }
    },
    {
      "id": 403,
      "region_id": 42,
      "name": "Малмыж",
      "weight": 0,
      "geo_lat": 56.5243844,
      "geo_lon": 50.6782739,
      "region": {
        "id": 42,
        "name": "Кировская область"
      }
    },
    {
      "id": 404,
      "region_id": 42,
      "name": "Мураши",
      "weight": 0,
      "geo_lat": 59.3955383,
      "geo_lon": 48.9638417,
      "region": {
        "id": 42,
        "name": "Кировская область"
      }
    },
    {
      "id": 405,
      "region_id": 42,
      "name": "Нолинск",
      "weight": 0,
      "geo_lat": 57.5597284,
      "geo_lon": 49.93575,
      "region": {
        "id": 42,
        "name": "Кировская область"
      }
    },
    {
      "id": 406,
      "region_id": 42,
      "name": "Омутнинск",
      "weight": 0,
      "geo_lat": 58.6698913,
      "geo_lon": 52.1894564,
      "region": {
        "id": 42,
        "name": "Кировская область"
      }
    },
    {
      "id": 407,
      "region_id": 42,
      "name": "Орлов",
      "weight": 0,
      "geo_lat": 58.5389776,
      "geo_lon": 48.8927723,
      "region": {
        "id": 42,
        "name": "Кировская область"
      }
    },
    {
      "id": 408,
      "region_id": 42,
      "name": "Слободской",
      "weight": 0,
      "geo_lat": 58.7311574,
      "geo_lon": 50.1669249,
      "region": {
        "id": 42,
        "name": "Кировская область"
      }
    },
    {
      "id": 409,
      "region_id": 42,
      "name": "Советск",
      "weight": 0,
      "geo_lat": 57.584196,
      "geo_lon": 48.9590272,
      "region": {
        "id": 42,
        "name": "Кировская область"
      },
      "has_name_dupe": true
    },
    {
      "id": 410,
      "region_id": 42,
      "name": "Сосновка",
      "weight": 0,
      "geo_lat": 56.2532741,
      "geo_lon": 51.2833642,
      "region": {
        "id": 42,
        "name": "Кировская область"
      }
    },
    {
      "id": 411,
      "region_id": 42,
      "name": "Уржум",
      "weight": 0,
      "geo_lat": 57.1097477,
      "geo_lon": 50.0058097,
      "region": {
        "id": 42,
        "name": "Кировская область"
      }
    },
    {
      "id": 412,
      "region_id": 42,
      "name": "Яранск",
      "weight": 0,
      "geo_lat": 57.3040326,
      "geo_lon": 47.8478737,
      "region": {
        "id": 42,
        "name": "Кировская область"
      }
    },
    {
      "id": 413,
      "region_id": 54,
      "name": "Воркута",
      "weight": 0,
      "geo_lat": 67.4974082,
      "geo_lon": 64.061034,
      "region": {
        "id": 54,
        "name": "Коми республика"
      }
    },
    {
      "id": 414,
      "region_id": 54,
      "name": "Вуктыл",
      "weight": 0,
      "geo_lat": 63.8615274,
      "geo_lon": 57.3165402,
      "region": {
        "id": 54,
        "name": "Коми республика"
      }
    },
    {
      "id": 415,
      "region_id": 54,
      "name": "Емва",
      "weight": 0,
      "geo_lat": 62.5965137,
      "geo_lon": 50.8732125,
      "region": {
        "id": 54,
        "name": "Коми республика"
      }
    },
    {
      "id": 416,
      "region_id": 54,
      "name": "Инта",
      "weight": 0,
      "geo_lat": 66.0367316,
      "geo_lon": 60.1152961,
      "region": {
        "id": 54,
        "name": "Коми республика"
      }
    },
    {
      "id": 417,
      "region_id": 54,
      "name": "Микунь",
      "weight": 0,
      "geo_lat": 62.3579068,
      "geo_lon": 50.0719503,
      "region": {
        "id": 54,
        "name": "Коми республика"
      }
    },